GEO_ID,STATE,COUNTY,NAME,LSAD,CENSUSAREA,lat,lng
0500000US02261,02,261,Valdez-Cordova,CA,34239.88,60.715893621227885,-146.72052179500523
0500000US02270,02,270,Wade Hampton,CA,17081.433,61.825480758152175,-164.22077392119564
0500000US02275,02,275,Wrangell,Cty&Bor,2541.483,56.33409126071429,-132.368327975
0500000US02290,02,290,Yukon-Koyukuk,CA,145504.789,65.05241659415583,-150.41508168506496
0500000US04003,04,003,Cochise,County,6165.69,31.883075575757573,-109.56375133333334
0500000US04009,04,009,Graham,County,4622.597,33.35462739361703,-109.83307752127659
0500000US04012,04,012,La Paz,County,4499.629,33.70450816622691,-114.43231147757258
0500000US04015,04,015,Mohave,County,13311.084,35.576134887983706,-114.04431412423625
0500000US04023,04,023,Santa Cruz,County,1236.916,31.532755555555557,-110.93560583333334
0500000US05005,05,005,Baxter,County,554.283,36.30071456,-92.39999329999999
0500000US05023,05,023,Cleburne,County,553.692,35.518212266666666,-91.98286393333333
0500000US05025,05,025,Cleveland,County,597.783,33.88050573913044,-92.27749978260869
0500000US05027,05,027,Columbia,County,766.053,33.161594387096784,-93.25921354838708
0500000US05037,05,037,Cross,County,616.381,35.310371277777776,-90.71464105555556
0500000US05043,05,043,Drew,County,828.356,33.57718252941176,-91.82842705882352
0500000US05051,05,051,Garland,County,677.781,34.6092795652174,-93.06996060869567
0500000US05059,05,059,Hot Spring,County,615.202,34.31775306666667,-92.96206813333333
0500000US05067,05,067,Jackson,County,633.938,35.64493333333334,-91.2838481818182
0500000US05081,05,081,Little River,County,532.253,33.61821594984326,-94.24545086833855
0500000US05087,05,087,Madison,County,834.255,36.05818463888889,-93.65698527777778
0500000US05097,05,097,Montgomery,County,779.88,34.61592115789474,-93.69784552631577
0500000US05109,05,109,Pike,County,600.618,34.099819236842094,-93.58404057894737
0500000US05111,05,111,Poinsett,County,758.389,35.5088606875,-90.655752875
0500000US05123,05,123,St. Francis,County,634.771,35.01165910526316,-90.80142331578949
0500000US05129,05,129,Searcy,County,666.095,35.9338825625,-92.7480784375
0500000US05135,05,135,Sharp,County,604.439,36.261731809523816,-91.45660009523809
0500000US05139,05,139,Union,County,1039.214,33.1794791369863,-92.48603594520549
0500000US08053,08,053,Hinsdale,County,1117.251,37.9135434,-107.42249777142857
0500000US08061,08,061,Kiowa,County,1767.767,38.453141766666675,-102.5128922
0500000US08073,08,073,Lincoln,County,2577.626,38.89366434782608,-103.5698400434783
0500000US08079,08,079,Mineral,County,875.666,37.79997840000001,-106.89240156
0500000US08085,08,085,Montrose,County,2240.695,38.31407618749999,-108.230844625
0500000US08095,08,095,Phillips,County,687.928,40.6293059,-102.2940374
0500000US08101,08,101,Pueblo,County,2386.104,38.09148755,-104.5778583
0500000US08105,08,105,Rio Grande,County,911.958,37.58904492307692,-106.53710699999998
0500000US08115,08,115,Sedgwick,County,548.041,40.97704316666666,-102.35196240000002
0500000US08121,08,121,Washington,County,2518.031,40.019489533333335,-103.18022186666667
0500000US09013,09,013,Tolland,County,410.214,41.76670172,-72.31621718000001
0500000US09015,09,015,Windham,County,512.91,41.82350931249999,-71.97287256250002
0500000US12005,12,005,Bay,County,758.459,30.198129772727274,-85.66033740909091
0500000US12013,12,013,Calhoun,County,567.334,30.418688130434788,-85.13061817391305
0500000US12019,12,019,Clay,County,604.36,29.964948571428575,-81.7992028857143
0500000US12033,12,033,Escambia,County,656.461,30.656252466666672,-87.44786770877192
0500000US12041,12,041,Gilchrist,County,349.677,29.784772021739137,-82.82438363043478
0500000US12049,12,049,Hardee,County,637.783,27.442764222222223,-81.73863944444444
0500000US12055,12,055,Highlands,County,1016.615,27.337690121951216,-81.17786229268293
0500000US12067,12,067,Lafayette,County,543.411,30.01843186206896,-83.12171593103447
0500000US12077,12,077,Liberty,County,835.562,30.27679071698113,-84.87891407547173
0500000US12081,12,081,Manatee,County,742.931,27.518371954545447,-82.56499077272726
0500000US12083,12,083,Marion,County,1584.546,29.22109684057971,-82.10691623188406
0500000US12087,12,087,Monroe,County,983.282,25.007664854805725,-81.01268605316973
0500000US12099,12,099,Palm Beach,County,1969.763,26.58533894736842,-80.24432931578949
0500000US12107,12,107,Putnam,County,727.622,29.567573000000003,-81.77127424489797
0500000US12123,12,123,Taylor,County,1043.305,29.899336982758623,-83.61700377586206
0500000US12133,12,133,Washington,County,582.803,30.61649666666667,-85.7871338095238
0500000US13009,13,009,Baldwin,County,257.844,33.03798985714286,-83.19577597619048
0500000US13019,13,019,Berrien,County,451.897,31.257956625,-83.22665599999999
0500000US13035,13,035,Butts,County,184.393,33.30990475,-83.94678059374999
0500000US13043,13,043,Candler,County,243.044,32.41398305263158,-82.05020805263158
0500000US13047,13,047,Catoosa,County,162.159,34.92471410714286,-85.12588982142859
0500000US13055,13,055,Chattooga,County,313.338,34.48194403703704,-85.37164755555555
0500000US13071,13,071,Colquitt,County,544.153,31.1533778,-83.74486132
0500000US13075,13,075,Cook,County,227.162,31.183307423076926,-83.42730638461536
0500000US13081,13,081,Crisp,County,272.583,31.920586499999995,-83.83671405555555
0500000US13093,13,093,Dooly,County,391.94,32.13867260526315,-83.92051513157894
0500000US13101,13,101,Echols,County,414.894,30.720316217391314,-82.86206791304346
0500000US13109,13,109,Evans,County,182.853,32.146231441176475,-81.80213235294117
0500000US13119,13,119,Franklin,County,261.497,34.41959994594595,-83.17815505405406
0500000US05141,05,141,Van Buren,County,708.143,35.55222570588235,-92.5182715882353
0500000US05143,05,143,Washington,County,941.966,35.978500469387754,-94.32180618367346
0500000US05147,05,147,Woodruff,County,586.791,35.1855501,-91.356580225
0500000US06011,06,011,Colusa,County,1150.731,39.156604422222216,-122.24435475555555
0500000US06021,06,021,Glenn,County,1313.947,39.576073903225804,-122.36440635483872
0500000US06031,06,031,Kings,County,1389.42,36.17792775862069,-119.83309596551724
0500000US06043,06,043,Mariposa,County,1448.816,37.603772041666666,-120.07465191666667
0500000US06049,06,049,Modoc,County,3917.77,41.825082341463414,-120.88471846341464
0500000US06067,06,067,Sacramento,County,964.644,38.33522185057471,-121.48596774712644
0500000US06071,06,071,San Bernardino,County,20056.938,34.596578910958904,-115.03257953767124
0500000US06083,06,083,Santa Barbara,County,2735.085,34.299646007434944,-120.07601193680297
0500000US06089,06,089,Shasta,County,3775.402,40.56830035820895,-122.33187147761193
0500000US06107,06,107,Tulare,County,4824.215,36.27663255882353,-118.81457170588234
0500000US08001,08,001,Adams,County,1167.653,39.849701220338986,-104.75364059322034
0500000US08003,08,003,Alamosa,County,722.643,37.599851199999996,-105.64801966666667
0500000US08011,08,011,Bent,County,1512.861,37.7964782,-103.08554593333332
0500000US08013,08,013,Boulder,County,726.289,39.95123616558441,-105.12684933766234
0500000US08014,08,014,Broomfield,County,33.034,39.943112577557756,-105.10591780363036
0500000US08025,08,025,Crowley,County,787.421,38.23006222222222,-103.77930155555556
0500000US08039,08,039,Elbert,County,1850.847,39.214009444444436,-104.10682133333334
0500000US08047,08,047,Gilpin,County,149.896,39.845941380952375,-105.51528395238095
0500000US01001,01,001,Autauga,County,594.436,32.45707803921568,-86.73703062745098
0500000US01003,01,003,Baldwin,County,1589.784,30.642219496987956,-87.61681334939759
0500000US01007,01,007,Bibb,County,622.582,33.05320857575758,-87.1223777878788
0500000US01011,01,011,Bullock,County,622.805,32.0996200882353,-85.74013355882353
0500000US01021,01,021,Chilton,County,692.854,32.88073194117647,-86.66083938235295
0500000US01031,01,031,Coffee,County,678.972,31.40564515384615,-86.07402223076923
0500000US01037,01,037,Coosa,County,650.926,32.905693393939394,-86.32565815151516
0500000US01045,01,045,Dale,County,561.15,31.372187000000007,-85.61535015000001
0500000US01055,01,055,Etowah,County,534.991,33.97317566666667,-86.0766312352941
0500000US01059,01,059,Franklin,County,633.821,34.40330322222222,-87.96324466666667
0500000US01075,01,075,Lamar,County,604.846,33.76372107142857,-88.19884578571428
0500000US01087,01,087,Macon,County,608.885,32.41549636842106,-85.81923142105265
0500000US01093,01,093,Marion,County,742.292,34.10516385,-88.0244794
0500000US01103,01,103,Morgan,County,579.337,34.54037076,-86.7924812
0500000US01111,01,111,Randolph,County,580.55,33.31458260000001,-85.4792316
0500000US01119,01,119,Sumter,County,903.887,32.590947830188675,-88.11057388679247
0500000US01131,01,131,Wilcox,County,888.498,32.06823784210526,-87.35020531578948
0500000US02013,02,013,Aleutians East,Borough,6981.943,55.1451259699727,-161.92112141492265
0500000US02050,02,050,Bethel,CA,40570.004,60.50677646804836,-163.7428320967185
0500000US02105,02,105,Hoonah-Angoon,CA,7524.915,58.054289756716415,-135.1103197850746
0500000US02122,02,122,Kenai Peninsula,Borough,16075.331,59.86168755656109,-151.7200162273756
0500000US02130,02,130,Ketchikan Gateway,Borough,4858.414,55.436335332480816,-131.10746054731456
0500000US02150,02,150,Kodiak Island,Borough,6549.579,57.63643515813118,-153.815552574124
0500000US02164,02,164,Lake and Peninsula,Borough,23652.009,57.10641116453382,-157.46175907312613
0500000US02180,02,180,Nome,CA,22961.761,64.27090700958468,-165.60204264376995
0500000US02185,02,185,North Slope,Borough,88695.413,70.10234104551921,-154.0863989018492
0500000US02188,02,188,Northwest Arctic,Borough,35572.584,66.72349318652849,-161.6480775880829
0500000US02195,02,195,Petersburg,CA,3281.982,56.662974002212394,-133.49338038495574
0500000US02220,02,220,Sitka,Cty&Bor,2870.339,57.23654226410257,-135.40575722307693
0500000US17069,17,069,Hardin,County,177.528,37.47976965753425,-88.19720076712328
0500000US17079,17,079,Jasper,County,494.51,39.01624290909091,-88.09439127272728
0500000US17081,17,081,Jefferson,County,571.169,38.33576809090909,-88.94393554545455
0500000US17087,17,087,Johnson,County,343.915,37.41790671428571,-88.89306707142855
0500000US17093,17,093,Kendall,County,320.335,41.63975633333334,-88.41089033333334
0500000US17099,17,099,LaSalle,County,1135.124,41.298884428571434,-88.97633957142855
0500000US17103,17,103,Lee,County,724.896,41.78189940000001,-89.3837702
0500000US17109,17,109,McDonough,County,589.407,40.482778571428575,-90.72597485714287
0500000US17115,17,115,Macon,County,580.689,39.80983611111111,-89.00310327777778
0500000US17121,17,121,Marion,County,572.363,38.59009038461538,-88.99872161538461
0500000US17129,17,129,Menard,County,314.437,40.085567148148144,-89.78351674074075
0500000US17135,17,135,Montgomery,County,703.687,39.23567577777777,-89.5097465
0500000US17141,17,141,Ogle,County,758.574,41.99816657142858,-89.39108885714285
0500000US17147,17,147,Piatt,County,439.202,40.02687057142857,-88.60439907142857
0500000US17155,17,155,Putnam,County,160.161,41.22816830769231,-89.30885007692308
0500000US17159,17,159,Richland,County,359.99,38.65735166666667,-88.12643127777777
0500000US17165,17,165,Saline,County,379.819,37.80341009090909,-88.51894381818182
0500000US17171,17,171,Scott,County,250.913,39.6534314,-90.5147828
0500000US17175,17,175,Stark,County,288.079,41.10816307692308,-89.81544938461539
0500000US17187,17,187,Warren,County,542.405,40.859421624999996,-90.61406675
0500000US17189,17,189,Washington,County,562.572,38.46085931428571,-89.42140437142857
0500000US17197,17,197,Will,County,836.908,41.47599892,-87.82457951999999
0500000US18001,18,001,Adams,County,339.028,40.733919263157894,-84.83063136842107
0500000US18007,18,007,Benton,County,406.418,40.574589615384625,-87.37404507692305
0500000US18011,18,011,Boone,County,422.913,40.05325683333333,-86.35770566666667
0500000US18017,18,017,Cass,County,412.155,40.74266673333333,-86.33847686666667
0500000US18023,18,023,Clinton,County,405.07,40.28812826666667,-86.41196506666667
0500000US18031,18,031,Decatur,County,372.568,39.25340833333333,-85.56090775000001
0500000US18035,18,035,Delaware,County,392.124,40.26992088888889,-85.40007655555556
0500000US18041,18,041,Fayette,County,215.014,39.7042465,-85.195202375
0500000US18047,18,047,Franklin,County,384.43,39.418960999999996,-84.99188505555554
0500000US18049,18,049,Fulton,County,368.388,41.03828653846154,-86.14149953846155
0500000US18053,18,053,Grant,County,414.074,40.49416261538462,-85.66046830769231
0500000US18055,18,055,Greene,County,542.495,39.007413166666666,-86.95827166666668
0500000US18065,18,065,Henry,County,391.876,39.91616115384615,-85.39020800000002
0500000US18069,18,069,Huntington,County,382.651,40.774274250000005,-85.44129725
0500000US18075,18,075,Jay,County,383.905,40.43358194117647,-84.93960317647058
0500000US18081,18,081,Johnson,County,320.427,39.488016133333325,-86.05497039999999
0500000US18085,18,085,Kosciusko,County,531.381,41.18944435714286,-85.868506
0500000US18093,18,093,Lawrence,County,449.168,38.83443784615385,-86.46203399999999
0500000US18095,18,095,Madison,County,451.915,40.21408644444445,-85.73655344444445
0500000US18101,18,101,Martin,County,335.737,38.687062299999994,-86.8102109
0500000US18107,18,107,Montgomery,County,504.613,40.01456881818182,-86.93992836363637
0500000US18113,18,113,Noble,County,410.843,41.3823732,-85.503539
0500000US18117,18,117,Orange,County,398.387,38.54576188888888,-86.46687577777779
0500000US18127,18,127,Porter,County,418.153,41.516483761904766,-87.08244176190478
0500000US18131,18,131,Pulaski,County,433.649,40.98598742857143,-86.70424514285715
0500000US18133,18,133,Putnam,County,480.528,39.646226500000004,-86.78723478571429
0500000US18139,18,139,Rush,County,408.124,39.623035615384616,-85.52685946153846
0500000US18145,18,145,Shelby,County,411.147,39.49346510526316,-85.79564989473685
0500000US18157,18,157,Tippecanoe,County,499.806,40.407997900000005,-86.9019109
0500000US18159,18,159,Tipton,County,260.541,40.32503475,-86.004789875
0500000US18167,18,167,Vigo,County,403.313,39.40677624242424,-87.50068018181818
0500000US18177,18,177,Wayne,County,401.74,39.84919187096774,-84.90772090322581
0500000US18179,18,179,Wells,County,368.087,40.698365100000004,-85.28680589999999
0500000US19001,19,001,Adair,County,569.271,41.33071516666667,-94.432774
0500000US19007,19,007,Appanoose,County,497.292,40.649320280000005,-92.86006760000001
0500000US19013,19,013,Black Hawk,County,565.769,42.45533066666667,-92.36746416666666
0500000US19017,19,017,Bremer,County,435.477,42.793507,-92.29100485714285
0500000US19021,19,021,Buena Vista,County,574.915,42.770309000000005,-95.1985498
0500000US19027,19,027,Carroll,County,569.437,42.011488285714286,-94.827058
0500000US19031,19,031,Cedar,County,579.436,41.759856285714285,-91.16592485714285
0500000US19035,19,035,Cherokee,County,576.906,42.677321000000006,-95.66312333333333
0500000US19039,19,039,Clarke,County,431.167,41.02870849999999,-93.771501
0500000US13125,13,125,Glascock,County,143.74,33.23056066666667,-82.66730347619048
0500000US13127,13,127,Glynn,County,419.753,31.21682410958904,-81.49758976712329
0500000US13131,13,131,Grady,County,454.527,30.829884352941182,-84.19303582352941
0500000US13143,13,143,Haralson,County,282.165,33.800245058823535,-85.20156476470589
0500000US13149,13,149,Heard,County,296.03,33.2543096,-85.06315233333335
0500000US13155,13,155,Irwin,County,354.343,31.630267850000003,-83.26445655
0500000US13163,13,163,Jefferson,County,526.485,33.02295922857143,-82.41991920000001
0500000US13171,13,171,Lamar,County,183.5,33.04968614285715,-84.1478990714286
0500000US13177,13,177,Lee,County,355.784,31.769230636363634,-84.09999033333334
0500000US13189,13,189,McDuffie,County,257.461,33.56826162,-82.52875350000001
0500000US13199,13,199,Meriwether,County,501.223,33.074021081081085,-84.62555524324326
0500000US13217,13,217,Newton,County,272.161,33.516659914285704,-83.84133011428573
0500000US13223,13,223,Paulding,County,312.219,33.87418469230769,-84.84570799999999
0500000US13227,13,227,Pickens,County,232.057,34.49401959090909,-84.45481777272727
0500000US13233,13,233,Polk,County,310.331,34.03057995652174,-85.183555
0500000US13243,13,243,Randolph,County,428.236,31.73725803703704,-84.6986383333333
0500000US13249,13,249,Schley,County,166.906,32.26344075,-84.33605233333333
0500000US13261,13,261,Sumter,County,482.697,32.08534927906977,-84.11626497674419
0500000US13273,13,273,Terrell,County,335.439,31.767732230769226,-84.41822253846155
0500000US13277,13,277,Tift,County,258.915,31.482029124999997,-83.503005875
0500000US13285,13,285,Troup,County,413.988,33.041920360000006,-85.06337568000001
0500000US13295,13,295,Walker,County,446.379,34.76411235294117,-85.28856038235294
0500000US13307,13,307,Webster,County,209.118,32.07837875862069,-84.5782894137931
0500000US13311,13,311,White,County,240.686,34.6633549032258,-83.72167593548386
0500000US13315,13,315,Wilcox,County,377.705,31.978433559322035,-83.31011018644068
0500000US15005,15,005,Kalawao,County,11.991,21.181186478260866,-156.9647586956522
0500000US15009,15,009,Maui,County,1161.521,20.880273868613138,-156.64430120072993
0500000US16009,16,009,Benewah,County,776.617,47.20661497142857,-116.81120488571429
0500000US16019,16,019,Bonneville,County,1866.077,43.29149459090909,-111.32044774999996
0500000US16025,16,025,Camas,County,1074.493,43.542064200000006,-114.7973867
0500000US16041,16,041,Franklin,County,663.645,42.20463518918918,-111.75063127027028
0500000US16045,16,045,Gem,County,560.9,44.14294726923077,-116.37732553846155
0500000US16049,16,049,Idaho,County,8477.352,45.93541258950618,-115.45170012345679
0500000US16057,16,057,Latah,County,1075.996,46.893821464285715,-116.78659485714284
0500000US16059,16,059,Lemhi,County,4563.387,45.04478821035598,-113.89430933980582
0500000US16067,16,067,Minidoka,County,757.591,42.69340384,-113.69170711999999
0500000US16081,16,081,Teton,County,449.456,43.76018205714286,-111.15394571428571
0500000US17005,17,005,Bond,County,380.279,38.91800238461538,-89.46505984615384
0500000US17007,17,007,Boone,County,280.719,42.38398209090909,-88.7679270909091
0500000US17009,17,009,Brown,County,305.607,39.980423083333335,-90.67090370833334
0500000US17019,17,019,Champaign,County,996.266,40.20136466666666,-88.16489708333334
0500000US17025,17,025,Clay,County,468.316,38.747563,-88.41055225
0500000US17029,17,029,Coles,County,508.291,39.548533416666665,-88.12606349999999
0500000US17035,17,035,Cumberland,County,346.024,39.250798333333336,-88.25539733333332
0500000US17037,17,037,DeKalb,County,631.307,41.94187035714286,-88.75254428571427
0500000US17041,17,041,Douglas,County,416.665,39.76355133333333,-88.19126466666665
0500000US17049,17,049,Effingham,County,478.777,39.03787922222222,-88.58709300000001
0500000US17053,17,053,Ford,County,485.616,40.588561882352934,-88.11665923529412
0500000US17065,17,065,Hamilton,County,434.665,38.06900616666667,-88.47409799999998
0500000US20209,20,209,Wyandotte,County,151.6,39.143506,-94.70350669767443
0500000US21001,21,001,Adair,County,405.283,37.156573040000005,-85.28073928000002
0500000US21005,21,005,Anderson,County,201.832,37.983484,-85.00378498113207
0500000US21021,21,021,Boyle,County,180.169,37.6345108974359,-84.76190397435897
0500000US21029,21,029,Bullitt,County,297.024,37.95725247222222,-85.70243316666668
0500000US21035,21,035,Calloway,County,385.021,36.572033184210525,-88.14191857894737
0500000US21045,21,045,Casey,County,444.23,37.35164386206897,-84.94399182758622
0500000US21053,21,053,Clinton,County,197.246,36.7103347037037,-85.10784100000001
0500000US21061,21,061,Edmonson,County,302.883,37.19863553333333,-86.19266606666665
0500000US21073,21,073,Franklin,County,207.747,38.24117786956522,-84.89359052173914
0500000US21081,21,081,Grant,County,257.965,38.58089865517241,-84.59929289655173
0500000US21083,21,083,Graves,County,551.743,36.63962508695652,-88.64194608695652
0500000US21097,21,097,Harrison,County,306.364,38.434560380952384,-84.39130442857143
0500000US21103,21,103,Henry,County,286.276,38.46620492682927,-85.03367863414636
0500000US21113,21,113,Jessamine,County,172.116,37.82122664864866,-84.57842605405406
0500000US21129,21,129,Lee,County,208.857,37.60035742307692,-83.73322492307692
0500000US21137,21,137,Lincoln,County,334.095,37.5005740882353,-84.68829541176471
0500000US21141,21,141,Logan,County,552.131,36.7836356,-86.85437488000001
0500000US21149,21,149,McLean,County,252.474,37.52826612903227,-87.27897074193548
0500000US21157,21,157,Marshall,County,301.253,36.9315503125,-88.3108046875
0500000US21165,21,165,Menifee,County,203.585,37.94017244,-83.59325052
0500000US21169,21,169,Metcalfe,County,289.645,36.98498915384616,-85.61372980769231
0500000US21179,21,179,Nelson,County,417.512,37.755344208333334,-85.53315392708332
0500000US21189,21,189,Owsley,County,197.407,37.42165463043478,-83.617524
0500000US21195,21,195,Pike,County,786.833,37.53212895666666,-82.27601766666666
0500000US21201,21,201,Robertson,County,99.911,38.53655048837209,-84.05094404651163
0500000US21215,21,215,Spencer,County,186.677,38.025903687500005,-85.321184375
0500000US21227,21,227,Warren,County,541.6,37.0277235625,-86.39756456250001
0500000US21237,21,237,Wolfe,County,222.171,37.710784818181814,-83.41899015909091
0500000US22003,22,003,Allen,Parish,761.847,30.6408682,-92.84114975000001
0500000US22013,22,013,Bienville,Parish,811.268,32.32758525714286,-93.14241968571427
0500000US22027,22,027,Claiborne,Parish,754.878,32.86878923076923,-92.94445992307693
0500000US22037,22,037,East Feliciana,Parish,453.41,30.833712019607844,-91.09844421568629
0500000US22047,22,047,Iberville,Parish,618.627,30.28550624137931,-91.3841566724138
0500000US22059,22,059,La Salle,Parish,624.684,31.543128032786885,-92.20184088524591
0500000US22073,22,073,Ouachita,Parish,610.406,32.5511116,-92.08239406000001
0500000US22075,22,075,Plaquemines,Parish,779.911,29.362902274193548,-89.50104574999999
0500000US22087,22,087,St. Bernard,Parish,377.517,29.870302388349515,-89.40270920873786
0500000US22089,22,089,St. Charles,Parish,279.083,29.883302470588234,-90.3736335882353
0500000US22105,22,105,Tangipahoa,Parish,791.275,30.69735323728814,-90.39797822033898
0500000US22111,22,111,Union,Parish,876.988,32.816328106382976,-92.35259500000001
0500000US19041,19,041,Clay,County,567.238,43.0479538,-95.198411
0500000US19043,19,043,Clayton,County,778.539,42.82837685185185,-91.09943412962964
0500000US19047,19,047,Crawford,County,714.19,41.99369075,-95.44069425
0500000US19055,19,055,Delaware,County,577.756,42.435524,-91.34312170000001
0500000US19063,19,063,Emmet,County,395.883,43.47162523529412,-94.73001476470588
0500000US19065,19,065,Fayette,County,730.811,42.89825927272727,-91.83744618181821
0500000US19069,19,069,Franklin,County,581.972,42.75814737499999,-93.20328025
0500000US19075,19,075,Grundy,County,501.858,42.38323872727273,-92.79746118181818
0500000US19079,19,079,Hamilton,County,576.751,42.383974699999996,-93.68921409999999
0500000US19087,19,087,Henry,County,434.328,40.95855516666666,-91.56358491666667
0500000US19091,19,091,Humboldt,County,434.352,42.8026936,-94.16004539999999
0500000US19095,19,095,Iowa,County,586.457,41.64287325,-91.9907915
0500000US19101,19,101,Jefferson,County,435.51,41.04607488888889,-91.95599444444444
0500000US19105,19,105,Jones,County,575.621,42.158554428571435,-91.06457542857143
0500000US19113,19,113,Linn,County,716.88,42.025848222222216,-91.56723411111112
0500000US19117,19,117,Lucas,County,430.593,41.073367,-93.32778
0500000US19121,19,121,Madison,County,561.006,41.331551000000005,-94.0499128
0500000US19123,19,123,Mahaska,County,570.863,41.310319428571425,-92.69000857142858
0500000US19131,19,131,Mitchell,County,469.133,43.451768117647056,-92.77896335294118
0500000US19135,19,135,Monroe,County,433.715,41.029909,-92.83085433333332
0500000US19141,19,141,O'Brien,County,573.035,43.08335133333333,-95.585123
0500000US19147,19,147,Palo Alto,County,563.844,43.0475082,-94.72551879999999
0500000US19151,19,151,Pocahontas,County,577.241,42.70454216666667,-94.60008649999999
0500000US19157,19,157,Poweshiek,County,584.932,41.664853625000006,-92.544018875
0500000US19159,19,159,Ringgold,County,535.498,40.603102380952386,-94.24784761904762
0500000US19165,19,165,Shelby,County,590.779,41.61577950000001,-95.3030828
0500000US19169,19,169,Story,County,572.818,42.060864428571435,-93.48133828571429
0500000US19175,19,175,Union,County,423.645,41.02750433333333,-94.204469
0500000US19179,19,179,Wapello,County,431.833,41.074301,-92.44818200000002
0500000US19183,19,183,Washington,County,568.835,41.39301533333334,-91.6202154
0500000US19195,19,195,Worth,County,400.123,43.46695273333333,-93.32361926666667
0500000US19197,19,197,Wright,County,580.422,42.74388825,-93.733878875
0500000US20001,20,001,Allen,County,500.303,37.82001236363636,-95.25008000000001
0500000US20013,20,013,Brown,County,570.872,39.8496722,-95.63459259999999
0500000US20017,20,017,Chase,County,773.06,38.27738466666667,-96.68723833333333
0500000US20025,20,025,Clark,County,974.632,37.16233783333333,-99.80513658333332
0500000US20027,20,027,Clay,County,645.301,39.27466681818182,-97.12014572727274
0500000US20029,20,029,Cloud,County,715.342,39.50903955555556,-97.74283844444443
0500000US20031,20,031,Coffey,County,626.947,38.214811923076915,-95.72217169230768
0500000US20033,20,033,Comanche,County,788.298,37.05438361904762,-99.31674561904762
0500000US20041,20,041,Dickinson,County,847.072,38.88046071428572,-97.08626890476191
0500000US20047,20,047,Edwards,County,621.894,37.88264216666666,-99.30130575
0500000US20049,20,049,Elk,County,644.265,37.420208375,-96.17399175
0500000US20055,20,055,Finney,County,1301.967,38.0187738125,-100.5818131875
0500000US20063,20,063,Gove,County,1071.665,38.988148499999994,-100.48184691666665
0500000US20067,20,067,Grant,County,574.8,37.537402,-101.30793242857143
0500000US20073,20,073,Greenwood,County,1143.3,37.92694792307692,-96.15108776923077
0500000US20077,20,077,Harper,County,801.269,37.070820999999995,-98.0925649375
0500000US20083,20,083,Hodgeman,County,859.992,38.09568315384615,-99.93001261538461
0500000US20093,20,093,Kearny,County,870.543,38.04855784615385,-101.34139046153845
0500000US20095,20,095,Kingman,County,863.363,37.568704636363634,-98.03603036363637
0500000US20101,20,101,Lane,County,717.455,38.409673,-100.46607750000003
0500000US20105,20,105,Lincoln,County,719.396,39.06141463636363,-98.182665
0500000US20109,20,109,Logan,County,1072.994,38.818698636363635,-101.15976236363636
0500000US20117,20,117,Marshall,County,900.183,39.866616115384616,-96.48140880769232
0500000US20131,20,131,Nemaha,County,717.427,39.86370203225807,-96.06389967741934
0500000US20139,20,139,Osage,County,705.518,38.67007091666667,-95.72570183333335
0500000US20151,20,151,Pratt,County,735.045,37.669054625,-98.671344
0500000US20155,20,155,Reno,County,1255.346,37.9857459375,-98.046721
0500000US20163,20,163,Rooks,County,890.533,39.40956190909091,-99.27080681818182
0500000US20165,20,165,Rush,County,717.763,38.52269283333333,-99.21838233333334
0500000US20169,20,169,Saline,County,720.225,38.76935592307692,-97.66351007692307
0500000US20177,20,177,Shawnee,County,544.016,39.070731470588235,-95.7640784117647
0500000US20185,20,185,Stafford,County,792.046,38.0692342,-98.7693712
0500000US20189,20,189,Stevens,County,727.293,37.14060968421052,-101.35116294736842
0500000US20193,20,193,Thomas,County,1074.687,39.36006433333333,-101.09059791666665
0500000US20199,20,199,Wallace,County,913.652,38.88236064285714,-101.89044114285711
0500000US20205,20,205,Wilson,County,570.418,37.53756966666666,-95.74335033333334
0500000US26057,26,057,Gratiot,County,568.464,43.27845918181818,-84.56204209090909
0500000US26059,26,059,Hillsdale,County,598.133,41.777321842105266,-84.64479678947369
0500000US26061,26,061,Houghton,County,1009.099,47.10448825462963,-88.49660793055556
0500000US26065,26,065,Ingham,County,556.12,42.5754953,-84.37011240000001
0500000US26067,26,067,Ionia,County,571.304,42.94459633333333,-85.11381183333333
0500000US26069,26,069,Iosco,County,549.096,44.336881649999995,-83.46114245
0500000US26073,26,073,Isabella,County,572.677,43.58223966666666,-84.88638999999999
0500000US26077,26,077,Kalamazoo,County,561.658,42.267156125,-85.444136625
0500000US26083,26,083,Keweenaw,County,540.112,47.62198557954545,-88.3622389128788
0500000US26085,26,085,Lake,County,567.37,44.06523142857143,-85.77320228571429
0500000US26093,26,093,Livingston,County,565.254,42.592189923076916,-83.87797753846154
0500000US26097,26,097,Mackinac,County,1021.569,45.96410597706423,-84.95530099999999
0500000US26103,26,103,Marquette,County,1808.401,46.740576819004524,-87.65406446606335
0500000US26107,26,107,Mecosta,County,555.071,43.60598739999999,-85.2767268
0500000US26109,26,109,Menominee,County,1044.079,45.37260850133334,-87.68490132800001
0500000US26111,26,111,Midland,County,516.253,43.6316504,-84.33605630000001
0500000US26117,26,117,Montcalm,County,705.399,43.327939300000004,-85.1760936
0500000US26123,26,123,Newaygo,County,813.204,43.44847277777777,-85.747591
0500000US26129,26,129,Ogemaw,County,563.488,44.277016,-84.14025116666667
0500000US26133,26,133,Osceola,County,566.391,44.048113,-85.328733
0500000US26135,26,135,Oscoda,County,565.731,44.7168282,-84.0812004
0500000US26137,26,137,Otsego,County,514.971,45.06705844444444,-84.6651241111111
0500000US26143,26,143,Roscommon,County,519.636,44.344972,-84.57908611111111
0500000US26151,26,151,Sanilac,County,962.566,43.41271089655173,-82.68256003448275
0500000US26155,26,155,Shiawassee,County,530.668,42.970741545454544,-84.18779154545453
0500000US26161,26,161,Washtenaw,County,705.965,42.23493915384615,-83.80898415384617
0500000US27009,27,009,Benton,County,408.301,45.688902227272735,-94.18501368181819
0500000US27017,27,017,Carlton,County,861.381,46.59457917391304,-92.54771813043477
0500000US27027,27,027,Clay,County,1045.366,46.89692171314741,-96.77850684063745
0500000US27029,27,029,Clearwater,County,998.94,47.676439190476195,-95.36790614285715
0500000US27031,27,031,Cook,County,1452.277,48.02185322916667,-90.19756569791667
0500000US27039,27,039,Dodge,County,439.276,44.04731399999999,-92.88935214285713
0500000US27041,27,041,Douglas,County,637.3,45.922514066666665,-95.45097006666666
0500000US27051,27,051,Grant,County,548.16,45.92685191666667,-96.0399155
0500000US27057,27,057,Hubbard,County,925.675,47.1600235882353,-94.9493425882353
0500000US27059,27,059,Isanti,County,435.794,45.5826879,-93.2780914
0500000US27065,27,065,Kanabec,County,521.586,45.94047391666666,-93.33296816666666
0500000US27073,27,073,Lac qui Parle,County,765.021,45.059223619047614,-96.20395019047619
0500000US27079,27,079,Le Sueur,County,448.76,44.34846566666667,-93.8750114074074
0500000US27081,27,081,Lincoln,County,536.757,44.3958071025641,-96.4050978974359
0500000US27083,27,083,Lyon,County,714.559,44.4216526,-95.8399105
0500000US27085,27,085,McLeod,County,491.471,44.83834746153846,-94.27409699999998
0500000US27091,27,091,Martin,County,712.347,43.5931486,-94.4755878
0500000US27111,27,111,Otter Tail,County,1972.068,46.37864038888889,-95.67554811111111
0500000US27119,27,119,Polk,County,1971.128,47.814154630094045,-96.92353793730406
0500000US27121,27,121,Pope,County,669.713,45.62563292307693,-95.41599446153847
0500000US27125,27,125,Red Lake,County,432.407,47.87122980000001,-96.0181307
0500000US27131,27,131,Rice,County,495.684,44.37346611111111,-93.26971155555555
0500000US27137,27,137,St. Louis,County,6247.401,47.758564967105265,-92.28410268092105
0500000US27143,27,143,Sibley,County,588.779,44.593075,-94.02591339473686
0500000US27147,27,147,Steele,County,429.645,43.997564857142855,-93.20151214285715
0500000US27153,27,153,Todd,County,944.982,46.087159588235295,-94.86956376470589
0500000US27159,27,159,Wadena,County,536.268,46.567150642857136,-94.93414728571429
0500000US27165,27,165,Watonwan,County,434.947,43.9781615,-94.69521033333335
0500000US27167,27,167,Wilkin,County,750.957,46.370456805555555,-96.65609857142857
0500000US28003,28,003,Alcorn,County,400.038,34.91297466666666,-88.62445533333334
0500000US28007,28,007,Attala,County,734.982,33.06224173333334,-89.72335293333335
0500000US28013,28,013,Calhoun,County,586.573,33.948363833333325,-89.27118050000001
0500000US28023,28,023,Clarke,County,691.554,31.998518153846153,-88.59615292307691
0500000US28031,28,031,Covington,County,413.792,31.608160466666668,-89.58391646666668
0500000US28035,28,035,Forrest,County,466.314,31.15313658333334,-89.29981458333333
0500000US28037,28,037,Franklin,County,563.779,31.378511666666665,-91.01605600000002
0500000US28043,28,043,Grenada,County,422.107,33.777230625,-89.88017425000001
0500000US28057,28,057,Itawamba,County,532.787,34.29428772222222,-88.28993677777778
0500000US28061,28,061,Jasper,County,676.243,32.011984444444444,-89.16505477777777
0500000US28065,28,065,Jefferson Davis,County,408.443,31.531720647058826,-89.77537235294118
0500000US28067,28,067,Jones,County,694.795,31.667778,-89.25225277777777
0500000US28073,28,073,Lamar,County,497.055,31.162743117647057,-89.51244552941176
0500000US22119,22,119,Webster,Parish,593.03,32.79579504651163,-93.38340213953488
0500000US22121,22,121,West Baton Rouge,Parish,192.394,30.506848877551022,-91.30543451020408
0500000US22127,22,127,Winn,Parish,950.086,31.92497866666667,-92.75897406666667
0500000US23003,23,003,Aroostook,County,6671.33,46.96813203385417,-68.43480220572917
0500000US23005,23,005,Cumberland,County,835.241,43.77634363424125,-70.2205349143969
0500000US23009,23,009,Hancock,County,1586.893,44.332644639473685,-68.4350871
0500000US23023,23,023,Sagadahoc,County,253.695,43.89363284375,-69.841571125
0500000US23029,23,029,Washington,County,2562.66,44.99565045202021,-67.47105646717172
0500000US24001,24,001,Allegany,County,424.158,39.577364200668896,-78.62255000334449
0500000US24003,24,003,Anne Arundel,County,414.902,38.93290209550562,-76.56690275
0500000US24017,24,017,Charles,County,457.749,38.44969693852459,-77.01383346311475
0500000US24019,24,019,Dorchester,County,540.765,38.38625704802744,-76.05846561406518
0500000US24027,24,027,Howard,County,250.741,39.24352664285714,-76.9788038392857
0500000US24029,24,029,Kent,County,277.03,39.22394862903225,-76.09395218548387
0500000US24035,24,035,Queen Anne's,County,371.908,39.00774034202898,-76.18107839710144
0500000US24037,24,037,St. Mary's,County,357.18,38.2008843275862,-76.51591827241378
0500000US24041,24,041,Talbot,County,268.538,38.776466641399416,-76.18698161807579
0500000US24043,24,043,Washington,County,457.78,39.56302331578947,-77.94022703947368
0500000US25003,25,003,Berkshire,County,926.825,42.346214975,-73.11143200000001
0500000US25019,25,019,Nantucket,County,44.97,41.30298625,-70.10408105
0500000US26005,26,005,Allegan,County,825.231,42.60830822222223,-86.11034074074075
0500000US26009,26,009,Antrim,County,475.703,45.00189986666666,-85.29562073333334
0500000US26015,26,015,Barry,County,553.092,42.57041985714285,-85.27353185714286
0500000US26019,26,019,Benzie,County,319.704,44.694261026315786,-86.10729418421053
0500000US26025,26,025,Calhoun,County,706.233,42.2283751,-85.1034824
0500000US26035,26,035,Clare,County,564.315,44.046538166666664,-84.8881225
0500000US26037,26,037,Clinton,County,566.408,42.924494375,-84.5131695
0500000US26039,26,039,Crawford,County,556.28,44.65827514285714,-84.53584514285714
0500000US26045,26,045,Eaton,County,575.175,42.571085,-84.80329842857142
0500000US26049,26,049,Genesee,County,636.977,43.02606866666667,-83.7316005
0500000US30045,30,045,Judith Basin,County,1869.821,46.92529411842105,-110.26057338157895
0500000US30051,30,051,Liberty,County,1430.045,48.615609388888885,-111.01373166666667
0500000US30065,30,065,Musselshell,County,1868.155,46.53633245348836,-108.14723243023258
0500000US30075,30,075,Powder River,County,3297.298,45.31757873913043,-105.66817247826086
0500000US30091,30,091,Sheridan,County,1677.08,48.70948215714286,-104.21036685714286
0500000US30101,30,101,Toole,County,1915.647,48.68172767741935,-111.87609103225806
0500000US31001,31,001,Adams,County,563.272,40.53945927272727,-98.45549027272727
0500000US31005,31,005,Arthur,County,715.355,41.56889816666667,-101.6990715
0500000US31009,31,009,Blaine,County,710.874,41.8434773,-100.0019734
0500000US31017,31,017,Brown,County,1221.333,42.615910785714284,-99.94262614285716
0500000US31029,31,029,Chase,County,894.419,40.46359399999999,-101.80488464285713
0500000US31035,31,035,Clay,County,572.289,40.5391925,-97.99805025
0500000US31037,31,037,Colfax,County,411.66,41.50016593333334,-97.08558613333335
0500000US31039,31,039,Cuming,County,570.619,41.907074875000006,-96.748697875
0500000US31047,31,047,Dawson,County,1013.096,40.801171249999996,-99.68926418749999
0500000US31057,31,057,Dundy,County,919.678,40.12053643333333,-101.66691793333334
0500000US31063,31,063,Frontier,County,974.592,40.469913384615374,-100.40927392307692
0500000US31069,31,069,Garden,County,1704.283,41.555393,-102.35487663157895
0500000US31073,31,073,Gosper,County,458.155,40.572713900000004,-99.8113701
0500000US31085,31,085,Hayes,County,713.062,40.502950777777784,-101.01698377777777
0500000US31091,31,091,Hooker,County,721.121,41.858347,-101.2289085
0500000US31093,31,093,Howard,County,569.337,41.20101977777777,-98.589561
0500000US31097,31,097,Johnson,County,376.051,40.327394375,-96.16926287500002
0500000US31109,31,109,Lancaster,County,837.548,40.87648583333333,-96.75564300000002
0500000US31111,31,111,Lincoln,County,2564.068,41.1524265625,-100.70754962500001
0500000US31115,31,115,Loup,County,568.29,41.929962727272724,-99.38035381818182
0500000US31117,31,117,McPherson,County,858.976,41.54296242857142,-101.00915385714286
0500000US31121,31,121,Merrick,County,484.881,41.1943496,-97.9548726857143
0500000US31123,31,123,Morrill,County,1423.838,41.764974470588236,-102.945447
0500000US31129,31,129,Nuckolls,County,575.155,40.09117224242424,-98.0720385151515
0500000US31135,31,135,Perkins,County,883.335,40.8609098,-101.82041389999999
0500000US31139,31,139,Pierce,County,573.249,42.32659257142857,-97.53475442857143
0500000US31149,31,149,Rock,County,1008.318,42.59691622727273,-99.45566236363635
0500000US31151,31,151,Saline,County,574.018,40.47446428571429,-97.04381871428572
0500000US31157,31,157,Scotts Bluff,County,739.401,41.88928783333333,-103.8297571111111
0500000US31163,31,163,Sherman,County,565.828,41.16257099999999,-98.88676566666666
0500000US31167,31,167,Stanton,County,427.949,41.91689133333334,-97.17458799999999
0500000US31171,31,171,Thomas,County,713.236,41.826730125,-100.524523875
0500000US31179,31,179,Wayne,County,442.915,42.24523500000001,-97.1045498888889
0500000US31183,31,183,Wheeler,County,575.182,41.8930385,-98.46945812499999
0500000US31185,31,185,York,County,572.51,40.81463333333334,-97.67317200000001
0500000US32003,32,003,Clark,County,7891.431,35.84983853754942,-114.66755020553359
0500000US32015,32,015,Lander,County,5490.105,39.82465402564102,-117.21842448717948
0500000US32027,32,027,Pershing,County,6036.563,40.487327650000005,-118.26305495
0500000US32510,32,510,Carson City,,144.662,39.179501346153856,-119.7605891153846
0500000US33007,33,007,Coos,County,1794.685,44.859720578754576,-71.46720547619047
0500000US33009,33,009,Grafton,County,1708.749,44.02059093206522,-72.03388139130436
0500000US33013,33,013,Merrimack,County,934.116,43.33327634782608,-71.71582582608696
0500000US34003,34,003,Bergen,County,233.009,40.93034883333333,-74.0388773125
0500000US34017,34,017,Hudson,County,46.191,40.72904221621623,-74.09129110810812
0500000US34029,34,029,Ocean,County,628.781,39.84506725581395,-74.22344813953488
0500000US34035,34,035,Somerset,County,301.813,40.561590630434786,-74.58982626086957
0500000US35001,35,001,Bernalillo,County,1160.828,35.02270021739131,-106.595544
0500000US28075,28,075,Lauderdale,County,703.634,32.418562615384616,-88.52588907692308
0500000US28077,28,077,Lawrence,County,430.668,31.535165000000003,-90.08592406666666
0500000US28079,28,079,Leake,County,583.0,32.765806700000006,-89.5556737
0500000US28081,28,081,Lee,County,449.951,34.31357753333332,-88.69317533333333
0500000US28085,28,085,Lincoln,County,586.115,31.555903444444443,-90.4730805
0500000US28091,28,091,Marion,County,542.384,31.146100058823528,-89.8382324117647
0500000US28097,28,097,Montgomery,County,406.981,33.447883812499995,-89.55282431250001
0500000US28101,28,101,Newton,County,578.104,32.39801175,-89.09229450000001
0500000US28107,28,107,Panola,County,685.144,34.342980600000004,-89.93307966666664
0500000US28115,28,115,Pontotoc,County,497.689,34.21640055555556,-89.02298633333334
0500000US28117,28,117,Prentiss,County,414.98,34.61651233333333,-88.53754508333333
0500000US28123,28,123,Scott,County,609.185,32.46526854545454,-89.66627627272727
0500000US28129,28,129,Smith,County,636.252,31.95653875,-89.53555043749999
0500000US28139,28,139,Tippah,County,457.815,34.84360247058824,-88.89919111764708
0500000US28145,28,145,Union,County,415.598,34.47697693333334,-88.94026746666665
0500000US28153,28,153,Wayne,County,810.75,31.692329095238094,-88.59254138095238
0500000US28159,28,159,Winston,County,607.245,33.07252165,-89.04261139999998
0500000US29001,29,001,Adair,County,567.324,40.20172572727273,-92.56170445454546
0500000US29007,29,007,Audrain,County,692.235,39.2599814375,-91.86748106249999
0500000US29015,29,015,Benton,County,704.06,38.34249944444444,-93.295974
0500000US29025,29,025,Caldwell,County,426.393,39.672048454545454,-93.99828727272728
0500000US29027,29,027,Callaway,County,834.575,38.795933600000005,-92.06540528571429
0500000US29035,29,035,Carter,County,507.361,36.95566492,-90.90858348
0500000US29043,29,043,Christian,County,562.645,36.954451166666665,-93.16191016666666
0500000US29049,29,049,Clinton,County,418.956,39.52865790909091,-94.44364763636364
0500000US29053,29,053,Cooper,County,564.765,38.87094005263158,-92.80477836842105
0500000US29057,29,057,Dade,County,490.012,37.41183233333334,-93.82193355555555
0500000US29063,29,063,DeKalb,County,421.356,39.8853275,-94.3386163
0500000US29067,29,067,Douglas,County,813.632,36.940567538461536,-92.44333523076922
0500000US29075,29,075,Gentry,County,491.422,40.199945923076925,-94.39221115384615
0500000US29079,29,079,Grundy,County,435.276,40.05231245454546,-93.5526470909091
0500000US29085,29,085,Hickory,County,399.091,37.91810999999999,-93.36518883333333
0500000US29093,29,093,Iron,County,550.259,37.54809836,-90.81317092
0500000US29095,29,095,Jackson,County,604.462,39.047298222222224,-94.41977051111112
0500000US29101,29,101,Johnson,County,829.282,38.772042625,-93.8486625
0500000US29103,29,103,Knox,County,504.011,40.11689815384615,-92.1721480769231
0500000US29109,29,109,Lawrence,County,611.737,37.099821555555565,-93.81049355555555
0500000US29115,29,115,Linn,County,615.564,39.851352500000004,-93.12384300000001
0500000US29119,29,119,McDonald,County,539.48,36.574189999999994,-94.4258277037037
0500000US29125,29,125,Maries,County,526.979,38.134713285714284,-91.92718442857142
0500000US29135,29,135,Moniteau,County,415.025,38.70357847368422,-92.54886910526317
0500000US29139,29,139,Montgomery,County,536.247,38.85359694444445,-91.49349377777779
0500000US29149,29,149,Oregon,County,789.796,36.59037655882353,-91.42252497058823
0500000US29159,29,159,Pettis,County,682.222,38.730738866666655,-93.3075812
0500000US29161,29,161,Phelps,County,671.784,37.93265394444444,-91.80504677777776
0500000US29167,29,167,Polk,County,635.523,37.674332642857145,-93.4257580714286
0500000US29175,29,175,Randolph,County,482.684,39.438185090909094,-92.49717900000002
0500000US29185,29,185,St. Clair,County,669.983,38.01922805555555,-93.70558772222223
0500000US29187,29,187,St. Francois,County,451.887,37.85251205882353,-90.43809794117648
0500000US29197,29,197,Schuyler,County,307.303,40.52200832258065,-92.57294145161289
0500000US29203,29,203,Shannon,County,1003.82,37.19107940740741,-91.26682040740742
0500000US29211,29,211,Sullivan,County,647.981,40.252044600000005,-93.15688079999998
0500000US29215,29,215,Texas,County,1177.266,37.34058726315791,-92.00515952631581
0500000US29221,29,221,Washington,County,759.913,38.01275271428572,-90.87233842857142
0500000US29229,29,229,Wright,County,681.771,37.28542749999999,-92.4682597
0500000US30001,30,001,Beaverhead,County,5541.624,45.028891880466475,-112.89522200874636
0500000US30011,30,011,Carter,County,3340.752,45.46349781999999,-104.4056014
0500000US30025,30,025,Fallon,County,1620.772,46.28624330555556,-104.33220583333333
0500000US30035,30,035,Glacier,County,2995.937,48.792451533333335,-113.24403337777777
0500000US37179,37,179,Union,County,631.52,34.93012629787235,-80.56929082978723
0500000US37181,37,181,Vance,County,253.517,36.33720195454545,-78.43505418181817
0500000US37191,37,191,Wayne,County,553.087,35.33106577142857,-77.98069711428572
0500000US38003,38,003,Barnes,County,1491.554,46.88210415384616,-98.08814384615383
0500000US38007,38,007,Billings,County,1148.853,46.965622999999994,-103.3228335833333
0500000US38013,38,013,Burke,County,1103.568,48.83611676470588,-102.46187764705883
0500000US38017,38,017,Cass,County,1764.937,46.958286907284766,-96.82245544039736
0500000US38019,38,019,Cavalier,County,1488.751,48.730255166666666,-98.39469166666667
0500000US38027,38,027,Eddy,County,630.171,47.685791571428574,-98.73657128571428
0500000US38031,38,031,Foster,County,635.453,47.50050390909091,-98.64337354545455
0500000US38039,38,039,Griggs,County,708.815,47.419598,-98.30439321428571
0500000US38041,38,041,Hettinger,County,1132.221,46.4065749,-102.3966045
0500000US38045,38,045,LaMoure,County,1145.943,46.43747766666667,-98.66751255555556
0500000US38057,38,057,Mercer,County,1042.957,47.38633899999999,-101.72532257777779
0500000US38063,38,063,Nelson,County,981.775,47.951054357142866,-98.25625664285714
0500000US38069,38,069,Pierce,County,1018.6,48.229214750000004,-99.9739064375
0500000US38075,38,075,Renville,County,877.053,48.725213642857135,-101.56782778571426
0500000US38083,38,083,Sheridan,County,972.379,47.55827326666667,-100.3511252
0500000US38089,38,089,Stark,County,1334.735,46.88772453333333,-102.58405606666666
0500000US38095,38,095,Towner,County,1024.561,48.64223314285715,-99.28607514285714
0500000US38097,38,097,Traill,County,861.949,47.45019002314815,-96.87115705555556
0500000US38103,38,103,Wells,County,1271.047,47.6447344,-99.55693726666667
0500000US39003,39,003,Allen,County,402.496,40.777523875,-84.11664975000001
0500000US39011,39,011,Auglaize,County,401.386,40.53196384210526,-84.21393047368421
0500000US39019,39,019,Carroll,County,394.609,40.5797365,-81.0631044
0500000US39023,39,023,Clark,County,397.473,39.87262811111111,-83.79126827777777
0500000US39031,39,031,Coshocton,County,563.913,40.262589874999996,-81.9211295
0500000US39033,39,033,Crawford,County,401.786,40.834871444444445,-82.90962388888889
0500000US39041,39,041,Delaware,County,443.098,40.255407526315786,-82.98823231578947
0500000US39047,39,047,Fayette,County,406.357,39.512697166666676,-83.47017883333334
0500000US39053,39,053,Gallia,County,466.53,38.767380554216864,-82.22389748192772
0500000US39055,39,055,Geauga,County,400.164,41.51557788235294,-81.18425676470589
0500000US39059,39,059,Guernsey,County,522.254,40.03092427777778,-81.50077283333333
0500000US39065,39,065,Hardin,County,470.405,40.64470133333332,-83.57480680000002
0500000US39073,39,073,Hocking,County,421.323,39.50084272727272,-82.50651104545454
0500000US39077,39,077,Huron,County,491.495,41.114004200000004,-82.58533200000001
0500000US39089,39,089,Licking,County,682.5,40.07405721052632,-82.44533989473685
0500000US39091,39,091,Logan,County,458.429,40.407668625,-83.8220255625
0500000US39097,39,097,Madison,County,465.875,39.94723934782609,-83.36674239130436
0500000US39103,39,103,Medina,County,421.358,41.14926938461539,-81.95076592307691
0500000US39109,39,109,Miami,County,406.58,40.0438534117647,-84.22271758823528
0500000US39117,39,117,Morrow,County,406.079,40.54465269565218,-82.78172478260869
0500000US39125,39,125,Paulding,County,416.438,41.1203432,-84.6533157
0500000US39131,39,131,Pike,County,440.282,39.028871916666674,-83.14527083333333
0500000US39137,39,137,Putnam,County,482.522,40.97482528571429,-84.19726292857142
0500000US39143,39,143,Sandusky,County,408.453,41.35349269230768,-83.15735576923076
0500000US39147,39,147,Seneca,County,551.017,41.116807666666666,-83.18220291666667
0500000US39157,39,157,Tuscarawas,County,567.636,40.51062433333333,-81.47836961904763
0500000US39159,39,159,Union,County,431.73,40.293622769230765,-83.32313446153846
0500000US39165,39,165,Warren,County,401.314,39.449862571428575,-84.20790178571428
0500000US39169,39,169,Wayne,County,554.929,40.8786398888889,-81.91892266666666
0500000US40005,40,005,Atoka,County,975.517,34.4243613125,-95.99445431250001
0500000US40011,40,011,Blaine,County,928.424,35.84668846153847,-98.45310330769232
0500000US40019,40,019,Carter,County,822.175,34.27000486666666,-97.2295152666667
0500000US40027,40,027,Cleveland,County,538.766,35.149365499999995,-97.40634894117647
0500000US40037,40,037,Creek,County,950.141,35.97618020000001,-96.30194126666666
0500000US40039,40,039,Custer,County,988.817,35.64220383333333,-98.94996941666666
0500000US40043,40,043,Dewey,County,999.476,35.96247707692308,-99.01404853846155
0500000US40053,40,053,Grant,County,1000.871,36.94554564,-97.76966223999997
0500000US35011,35,011,De Baca,County,2322.623,34.40808422222222,-104.35051666666666
0500000US35015,35,015,Eddy,County,4175.726,32.3073690952381,-104.27596933333334
0500000US35017,35,017,Grant,County,3961.625,32.80676211666667,-108.14647686666666
0500000US35027,35,027,Lincoln,County,4831.091,33.58899155555555,-105.60565896296295
0500000US35035,35,035,Otero,County,6613.209,32.323099,-105.61299299999999
0500000US35047,35,047,San Miguel,County,4715.821,35.57737548387097,-104.85719825806453
0500000US35057,35,057,Torrance,County,3344.845,34.68852460714286,-106.04872375000001
0500000US35061,35,061,Valencia,County,1066.175,34.71963576,-106.63838711999999
0500000US36011,36,011,Cayuga,County,691.582,42.99654429268292,-76.58100007317073
0500000US36021,36,021,Columbia,County,634.705,42.2014788,-73.76204236000001
0500000US36023,36,023,Cortland,County,498.76,42.57784624999999,-76.08596108333334
0500000US36033,36,033,Franklin,County,1629.119,44.7101145,-74.34625715625
0500000US36041,36,041,Hamilton,County,1717.373,43.60823703846154,-74.35326450000001
0500000US36049,36,049,Lewis,County,1274.679,43.874611736842105,-75.5497687368421
0500000US36057,36,057,Montgomery,County,403.043,42.90039685000001,-74.45861694999999
0500000US36065,36,065,Oneida,County,1212.429,43.164045021739135,-75.43211739130435
0500000US36073,36,073,Orleans,County,391.259,43.300927411764704,-78.21971511764707
0500000US36079,36,079,Putnam,County,230.312,41.43780682758621,-73.66187665517242
0500000US36087,36,087,Rockland,County,173.55,41.130251,-73.9921364
0500000US36095,36,095,Schoharie,County,621.819,42.60373410810811,-74.36771345945945
0500000US36107,36,107,Tioga,County,518.602,42.19415947727273,-76.28750459090908
0500000US36117,36,117,Wayne,County,603.826,43.22102094871795,-77.01128433333332
0500000US37001,37,001,Alamance,County,423.943,36.0539121875,-79.37058875
0500000US37003,37,003,Alexander,County,259.994,35.906377151515144,-81.18335278787877
0500000US37005,37,005,Alleghany,County,235.059,36.489565355555555,-81.13325940000001
0500000US37017,37,017,Bladen,County,874.328,34.59016059615385,-78.50299963461539
0500000US37025,37,025,Cabarrus,County,361.749,35.36739704347827,-80.6404692173913
0500000US37033,37,033,Caswell,County,424.922,36.45464865,-79.38261419999999
0500000US37043,37,043,Clay,County,214.751,35.07281814634146,-83.69840529268292
0500000US37055,37,055,Dare,County,383.42,35.72779999038461,-75.69012798076923
0500000US37057,37,057,Davidson,County,552.675,35.80269017307692,-80.30769107692306
0500000US37063,37,063,Durham,County,285.975,36.030994625000005,-78.8124928125
0500000US37073,37,073,Gates,County,340.445,36.41926652272727,-76.73025229545453
0500000US37081,37,081,Guilford,County,645.704,36.12588494117647,-79.88190570588235
0500000US37091,37,091,Hertford,County,353.06,36.40432489473684,-76.9711342105263
0500000US37101,37,101,Johnston,County,791.299,35.485205081081084,-78.38881032432433
0500000US37109,37,109,Lincoln,County,297.938,35.50234647368421,-81.2849862631579
0500000US37123,37,123,Montgomery,County,491.76,35.29325492307693,-79.95157371794872
0500000US37127,37,127,Nash,County,540.407,35.99676669230769,-77.92358074358975
0500000US37135,37,135,Orange,County,397.958,36.027471818181816,-79.18263281818182
0500000US37145,37,145,Person,County,392.322,36.4465264375,-78.977878875
0500000US37151,37,151,Randolph,County,782.517,35.77212433333334,-79.84860255555556
0500000US37155,37,155,Robeson,County,949.221,34.553618603773586,-79.1141859245283
0500000US37167,37,167,Stanly,County,395.086,35.25864027659574,-80.20555478723405
0500000US45045,45,045,Greenville,County,785.12,35.03022480073801,-82.51230357564576
0500000US45047,45,047,Greenwood,County,454.726,34.16013895454545,-82.11856934090908
0500000US45051,45,051,Horry,County,1133.896,33.928694672727275,-78.98414016363637
0500000US45061,45,061,Lee,County,410.184,34.168685644444444,-80.26252815555556
0500000US45081,45,081,Saluda,County,452.778,34.05636974358974,-81.75002089743589
0500000US45087,45,087,Union,County,514.171,34.70035349999999,-81.57991182692308
0500000US46003,46,003,Aurora,County,708.425,43.7706904,-98.55522309999999
0500000US46005,46,005,Beadle,County,1258.71,44.41091063636364,-98.37156918181817
0500000US46013,46,013,Brown,County,1712.981,45.688925210526314,-98.37909631578947
0500000US46017,46,017,Buffalo,County,471.384,44.0796733125,-99.37367225
0500000US46025,46,025,Clark,County,957.604,44.81926608333333,-97.71528916666665
0500000US46029,46,029,Codington,County,688.495,44.97760622222223,-97.19227699999999
0500000US46043,46,043,Douglas,County,431.802,43.41325625,-98.45492887500001
0500000US46045,46,045,Edmunds,County,1125.956,45.41529077777778,-99.14595955555556
0500000US46055,46,055,Haakon,County,1810.534,44.4085962413793,-101.5761241724138
0500000US46061,46,061,Hanson,County,434.513,43.72387288888889,-97.75403155555556
0500000US46067,46,067,Hutchinson,County,812.904,43.3054609,-97.77797539999999
0500000US46073,46,073,Jerauld,County,526.233,44.04795771428571,-98.62231885714286
0500000US46077,46,077,Kingsbury,County,832.236,44.28226266666667,-97.58021566666666
0500000US46079,46,079,Lake,County,563.277,43.99706657142857,-97.12932957142857
0500000US46087,46,087,McCook,County,574.204,43.69345341666667,-97.37107475
0500000US46097,46,097,Miner,County,570.311,44.02875008333333,-97.66962233333334
0500000US46099,46,099,Minnehaha,County,807.147,43.64585047619047,-96.65442928571427
0500000US46107,46,107,Potter,County,861.14,45.05595272727272,-100.17206704545453
0500000US46111,46,111,Sanborn,County,569.321,43.969374153846154,-98.0441383076923
0500000US46121,46,121,Todd,County,1388.556,43.08268083870967,-100.6294081935484
0500000US46125,46,125,Turner,County,617.057,43.313178875,-97.15370837500001
0500000US46137,46,137,Ziebach,County,1961.272,44.94242273076922,-101.63175026923076
0500000US47003,47,003,Bedford,County,473.635,35.52437813043478,-86.43888328260869
0500000US47005,47,005,Benton,County,394.142,36.09412858695652,-88.0408715
0500000US47015,47,015,Cannon,County,265.635,35.782378466666664,-86.07680176666668
0500000US47017,47,017,Carroll,County,599.252,35.91266452173913,-88.44507552173911
0500000US47031,47,031,Coffee,County,428.957,35.482760875,-86.101330325
0500000US47039,47,039,Decatur,County,333.845,35.580213050000005,-88.068270325
0500000US47047,47,047,Fayette,County,704.786,35.15116988235294,-89.47836882352942
0500000US47053,47,053,Gibson,County,602.742,35.99660453571429,-88.96882928571429
0500000US47061,47,061,Grundy,County,360.534,35.38562746875,-85.69597890624999
0500000US47069,47,069,Hardeman,County,667.768,35.15779594999999,-88.9643594
0500000US47077,47,077,Henderson,County,520.073,35.581143545454545,-88.43388513636363
0500000US47083,47,083,Houston,County,200.286,36.286142500000004,-87.75825791666666
0500000US47099,47,099,Lawrence,County,617.128,35.19685904651162,-87.38745620930231
0500000US47107,47,107,McMinn,County,430.125,35.428228159090914,-84.63996154545454
0500000US47113,47,113,Madison,County,557.117,35.640866470588236,-88.82270270588235
0500000US47125,47,125,Montgomery,County,539.177,36.516453475000006,-87.2982531
0500000US47133,47,133,Overton,County,433.483,36.37156,-85.32484205128205
0500000US47153,47,153,Sequatchie,County,265.858,35.407666678571424,-85.4690149285714
0500000US47169,47,169,Trousdale,County,114.193,36.37647016666667,-86.17893391666667
0500000US47173,47,173,Union,County,223.549,36.317948972222226,-83.83626850000002
0500000US47179,47,179,Washington,County,326.465,36.31172022222221,-82.49000840740739
0500000US40057,40,057,Harmon,County,537.194,34.64184714634147,-99.87833853658536
0500000US40059,40,059,Harper,County,1039.017,36.9349149,-99.59078989999999
0500000US40063,40,063,Hughes,County,804.647,35.00596447619048,-96.21764547619047
0500000US40069,40,069,Johnston,County,642.94,34.2468955,-96.63960125
0500000US40073,40,073,Kingfisher,County,898.161,35.93358775,-97.995255875
0500000US40077,40,077,Latimer,County,722.08,34.8826764,-95.24087200000001
0500000US40091,40,091,McIntosh,County,618.496,35.28574823255814,-95.66434153488372
0500000US40097,40,097,Mayes,County,655.386,36.28383686666666,-95.17298733333334
0500000US40103,40,103,Noble,County,731.895,36.39466461538462,-97.11192573076922
0500000US40109,40,109,Oklahoma,County,708.819,35.48786427272727,-97.41976518181818
0500000US40119,40,119,Payne,County,684.703,36.05759204545455,-97.06743881818183
0500000US40125,40,125,Pottawatomie,County,787.672,35.126820555555554,-96.89203366666665
0500000US40131,40,131,Rogers,County,675.632,36.281139666666675,-95.6178693
0500000US40137,40,137,Stephens,County,870.244,34.53025913333333,-97.92228486666666
0500000US40147,40,147,Washington,County,415.454,36.88426555555556,-95.8776531111111
0500000US40153,40,153,Woodward,County,1242.399,36.57137621428571,-99.18982885714284
0500000US41013,41,013,Crook,County,2979.086,44.15536890909092,-120.43835636363636
0500000US41025,41,025,Harney,County,10133.17,42.91715795454546,-119.09187490909089
0500000US41031,41,031,Jefferson,County,1780.785,44.63745654054054,-121.2465682162162
0500000US41049,41,049,Morrow,County,2031.609,45.53539191666667,-119.64586486111112
0500000US41053,41,053,Polk,County,740.787,44.85398654838709,-123.25851025806452
0500000US41067,41,067,Washington,County,724.23,45.534709456790125,-123.08880737037036
0500000US42007,42,007,Beaver,County,434.712,40.63747091304348,-80.41067943478262
0500000US42011,42,011,Berks,County,856.506,40.460259378378375,-75.9878034324324
0500000US42013,42,013,Blair,County,525.8,40.508565023809524,-78.32889576190476
0500000US42015,42,015,Bradford,County,1147.399,41.84661621739131,-76.6393462173913
0500000US42023,42,023,Cameron,County,396.231,41.435484076923075,-78.22943238461538
0500000US42047,42,047,Elk,County,827.358,41.40579463636364,-78.74554963636363
0500000US42053,42,053,Forest,County,427.185,41.44819496,-79.25712048
0500000US42063,42,063,Indiana,County,827.03,40.5034838125,-79.15509791666666
0500000US42069,42,069,Lackawanna,County,459.078,41.3732734516129,-75.6603285483871
0500000US42075,42,075,Lebanon,County,361.833,40.340609083333334,-76.36875199999999
0500000US42083,42,083,McKean,County,979.197,41.783369199999996,-78.6112596
0500000US42093,42,093,Montour,County,130.242,41.00390946153846,-76.63158153846153
0500000US42105,42,105,Potter,County,1081.323,41.80830466666667,-77.89636753333335
0500000US42107,42,107,Schuylkill,County,778.634,40.66067109756097,-76.28125670731707
0500000US42113,42,113,Sullivan,County,449.94,41.38843792307693,-76.46937507692306
0500000US42119,42,119,Union,County,315.982,40.963238806451606,-77.03160977419354
0500000US42131,42,131,Wyoming,County,397.324,41.546673842105264,-75.94266899999998
0500000US45001,45,001,Abbeville,County,490.484,34.13901917948717,-82.56484366666665
0500000US45009,45,009,Bamberg,County,393.37,33.246876166666674,-81.05393566666669
0500000US45023,45,023,Chester,County,580.657,34.68376122580646,-81.16948406451613
0500000US45031,45,031,Darlington,County,561.153,34.37088796296297,-79.91494564814813
0500000US45039,45,039,Fairfield,County,686.277,34.358320514285715,-81.15189614285715
0500000US48173,48,173,Glasscock,County,900.218,31.869180833333335,-101.59233966666666
0500000US48175,48,175,Goliad,County,852.014,28.654400891304352,-97.4127610652174
0500000US48179,48,179,Gray,County,925.974,35.3573652,-100.758066
0500000US48183,48,183,Gregg,County,273.303,32.46112209090909,-94.73067368181819
0500000US48189,48,189,Hale,County,1004.683,34.151153666666666,-101.8988365
0500000US48193,48,193,Hamilton,County,835.914,31.741399625,-98.157505625
0500000US48205,48,205,Hartley,County,1462.033,35.83818290909091,-102.80188718181817
0500000US48207,48,207,Haskell,County,903.131,33.17798983333333,-99.754415
0500000US48209,48,209,Hays,County,677.978,29.995395705882355,-97.96862205882353
0500000US48219,48,219,Hockley,County,908.392,33.5634914,-102.28957480000001
0500000US48221,48,221,Hood,County,420.641,32.40187557142857,-97.81591485714284
0500000US48227,48,227,Howard,County,900.791,32.306072,-101.4492125
0500000US48231,48,231,Hunt,County,840.318,33.02848485714286,-96.03640407142858
0500000US48233,48,233,Hutchinson,County,887.419,35.883082,-101.40831320000001
0500000US48237,48,237,Jack,County,910.662,33.29748888888889,-98.12237422222222
0500000US48243,48,243,Jeff Davis,County,2264.555,30.63688408333334,-104.38372566666668
0500000US48251,48,251,Johnson,County,724.692,32.25164127777778,-97.51245822222224
0500000US48253,48,253,Jones,County,928.554,32.738732,-99.863382875
0500000US48263,48,263,Kent,County,902.507,33.088598857142856,-100.77371800000002
0500000US48265,48,265,Kerr,County,1103.318,30.015152,-99.39735730769232
0500000US48269,48,269,King,County,910.872,33.68980583333333,-100.18675233333333
0500000US48279,48,279,Lamb,County,1016.181,34.15029066666667,-102.42458766666668
0500000US48281,48,281,Lampasas,County,712.84,31.15566157142857,-98.38909410714284
0500000US48291,48,291,Liberty,County,1158.417,30.196767631578943,-94.8532830526316
0500000US48293,48,293,Limestone,County,905.288,31.52817390909091,-96.51834118181819
0500000US48303,48,303,Lubbock,County,895.599,33.566846399999996,-101.767802
0500000US48305,48,305,Lynn,County,891.867,33.17694516666666,-101.75243816666666
0500000US48309,48,309,McLennan,County,1037.101,31.532663777777778,-97.16604077777778
0500000US48311,48,311,McMullen,County,1139.426,28.446364000000003,-98.509956625
0500000US48317,48,317,Martin,County,914.944,32.27436085714286,-101.92569085714285
0500000US48325,48,325,Medina,County,1325.356,29.459091153846153,-99.03739453846154
0500000US48327,48,327,Menard,County,902.03,30.907738636363636,-99.67822727272728
0500000US48335,48,335,Mitchell,County,911.09,32.342745125,-100.87544299999999
0500000US48341,48,341,Moore,County,899.691,35.73144475,-101.892914
0500000US48345,48,345,Motley,County,989.562,34.166845699999996,-100.7391859
0500000US48353,48,353,Nolan,County,911.997,32.340801875,-100.40998662499999
0500000US48357,48,357,Ochiltree,County,917.627,36.444206099999995,-100.75965169999999
0500000US48359,48,359,Oldham,County,1500.533,35.357353545454544,-102.57069572727274
0500000US48363,48,363,Palo Pinto,County,951.791,32.709062700000004,-98.331214
0500000US48365,48,365,Panola,County,801.749,32.17744689473684,-94.24396118421052
0500000US48367,48,367,Parker,County,903.478,32.780373749999995,-97.73136875
0500000US48375,48,375,Potter,County,908.37,35.3579396,-101.83978099999999
0500000US48379,48,379,Rains,County,229.452,32.8490384375,-95.79813150000001
0500000US48381,48,381,Randall,County,911.544,34.89283716666666,-101.95930666666668
0500000US48393,48,393,Roberts,County,924.058,35.8822246,-100.7754716
0500000US48397,48,397,Rockwall,County,127.036,32.876962000000006,-96.42357200000001
0500000US48399,48,399,Runnels,County,1050.945,31.81640866666667,-100.03836466666667
0500000US48407,48,407,San Jacinto,County,569.243,30.604363177777778,-95.10679884444446
0500000US48413,48,413,Schleicher,County,1310.63,30.9353521,-100.4989269
0500000US48417,48,417,Shackelford,County,914.286,32.760393444444446,-99.26034722222222
0500000US48429,48,429,Stephens,County,896.719,32.809212,-98.89847150000001
0500000US48431,48,431,Sterling,County,923.451,31.835416333333328,-101.01976422222224
0500000US48437,48,437,Swisher,County,890.159,34.56122642857143,-101.6579042857143
0500000US48441,48,441,Taylor,County,915.552,32.33126014285715,-99.79037642857143
0500000US48445,48,445,Terry,County,888.839,33.08186742857143,-102.39061828571428
0500000US48455,48,455,Trinity,County,693.608,31.068313447368418,-95.13665739473684
0500000US48461,48,461,Upton,County,1241.324,31.315709,-102.105384875
0500000US48467,48,467,Van Zandt,County,842.557,32.6195079375,-95.70144775
0500000US48481,48,481,Wharton,County,1086.15,29.422182500000005,-96.053894
0500000US48483,48,483,Wheeler,County,914.523,35.3682205,-100.1801145
0500000US48491,48,491,Williamson,County,1118.303,30.55109134090909,-97.70028002272728
0500000US48497,48,497,Wise,County,904.422,33.2577153,-97.58688529999999
0500000US48503,48,503,Young,County,914.468,33.15182042857143,-98.67268528571428
0500000US48507,48,507,Zavala,County,1297.406,28.866501999999997,-99.65931733333332
0500000US49011,49,011,Davis,County,298.778,40.969161944444444,-111.89462788888889
0500000US49021,49,021,Iron,County,3296.681,37.75882070270271,-113.3095762972973
0500000US47183,47,183,Weakley,County,580.364,36.334258862068964,-88.74997748275861
0500000US47185,47,185,White,County,376.673,35.88205812244898,-85.50556236734694
0500000US48003,48,003,Andrews,County,1500.713,32.174546909090914,-102.73497900000001
0500000US48009,48,009,Archer,County,903.11,33.651416875,-98.595221
0500000US48011,48,011,Armstrong,County,909.109,34.892810000000004,-101.33192316666667
0500000US48013,48,013,Atascosa,County,1219.544,28.930254266666672,-98.55483140000001
0500000US48017,48,017,Bailey,County,826.797,34.042786375,-103.00866175
0500000US48023,48,023,Baylor,County,867.482,33.67206933333333,-99.300878
0500000US48027,48,027,Bell,County,1051.016,31.003203333333328,-97.5702962
0500000US48031,48,031,Blanco,County,709.251,30.31901833333333,-98.36702911111111
0500000US48037,48,037,Bowie,County,885.006,33.54283680053191,-94.34637566489361
0500000US48047,48,047,Brooks,County,943.364,27.133535176470588,-98.35031829411766
0500000US48059,48,059,Callahan,County,899.372,32.26625728571429,-99.34578742857141
0500000US48063,48,063,Camp,County,195.826,32.998111933333334,-94.95604866666666
0500000US48065,48,065,Carson,County,920.22,35.433717,-101.31616242857145
0500000US48069,48,069,Castro,County,894.434,34.584473625,-102.2058175
0500000US48075,48,075,Childress,County,696.405,34.48319225,-100.15337025000001
0500000US48079,48,079,Cochran,County,775.15,33.64326266666667,-102.99172853333334
0500000US48081,48,081,Coke,County,911.47,31.954314333333333,-100.50305866666666
0500000US48087,48,087,Collingsworth,County,918.441,34.891344875,-100.187186
0500000US48093,48,093,Comanche,County,937.754,31.8828691,-98.4712643
0500000US48099,48,099,Coryell,County,1052.066,31.499570857142857,-97.7619482857143
0500000US48101,48,101,Cottle,County,900.563,34.16951423076923,-100.23270038461538
0500000US48107,48,107,Crosby,County,900.198,33.657934999999995,-101.2483136
0500000US48111,48,111,Dallam,County,1503.259,36.3748842,-102.61519849999999
0500000US48115,48,115,Dawson,County,900.306,32.814657499999996,-102.01266349999999
0500000US48121,48,121,Denton,County,878.432,33.165450875000005,-97.045998125
0500000US48125,48,125,Dickens,County,901.724,33.659596,-100.8314488
0500000US48131,48,131,Duval,County,1793.481,27.48029666666667,-98.56877893333336
0500000US48143,48,143,Erath,County,1083.071,32.2118805,-98.2149962857143
0500000US48145,48,145,Falls,County,765.483,31.15840722222222,-96.90390122222222
0500000US48149,48,149,Fayette,County,950.008,29.986733750000003,-96.83623845833334
0500000US48159,48,159,Franklin,County,284.391,33.25045133333333,-95.22430266666665
0500000US48163,48,163,Frio,County,1133.5,28.831155272727276,-99.096546
0500000US48171,48,171,Gillespie,County,1058.214,30.297158600000007,-98.9436948
0500000US53035,53,035,Kitsap,County,394.941,47.71063867415731,-122.58580491011236
0500000US53045,53,045,Mason,County,959.417,47.30018595,-123.01439730000001
0500000US53059,53,059,Skamania,County,1655.677,45.80034054716981,-121.9233870754717
0500000US53069,53,069,Wahkiakum,County,263.375,46.252537365853655,-123.49507868292683
0500000US54001,54,001,Barbour,County,341.059,39.13458075757575,-80.007457
0500000US54013,54,013,Calhoun,County,279.249,38.846794624999994,-81.125747775
0500000US54021,54,021,Gilmer,County,338.503,38.92479359259259,-80.88972722222222
0500000US54033,54,033,Harrison,County,416.008,39.28302838235294,-80.43444861764705
0500000US54041,54,041,Lewis,County,384.895,38.90678346666667,-80.50497738333334
0500000US54047,54,047,McDowell,County,533.456,37.340193663157905,-81.73573876842104
0500000US54061,54,061,Monongalia,County,360.062,39.62557244444445,-80.07587655555555
0500000US54067,54,067,Nicholas,County,646.824,38.287208803921565,-80.9150790392157
0500000US54089,54,089,Summers,County,360.46,37.66956913888888,-80.88975497222224
0500000US54101,54,101,Webster,County,553.468,38.51372047826087,-80.4593922173913
0500000US54105,54,105,Wirt,County,232.509,39.01974511111111,-81.37581300000001
0500000US55001,55,001,Adams,County,645.646,43.98141936000001,-89.81663804
0500000US55005,55,005,Barron,County,862.711,45.380365874999995,-91.8485915
0500000US55015,55,015,Calumet,County,318.236,44.1319174,-88.28623046666667
0500000US55017,55,017,Chippewa,County,1008.373,45.064677312499995,-91.25822693750001
0500000US55025,55,025,Dane,County,1197.239,43.145565733333335,-89.51719073333334
0500000US55027,55,027,Dodge,County,875.625,43.4037933125,-88.731776875
0500000US55033,55,033,Dunn,County,850.105,44.96985172727273,-91.92189518181819
0500000US55035,55,035,Eau Claire,County,637.983,44.70938360000001,-91.4042563
0500000US55039,55,039,Fond du Lac,County,719.553,43.77839350000001,-88.47569885714286
0500000US55045,55,045,Green,County,583.957,42.554776727272724,-89.59046578787878
0500000US55047,55,047,Green Lake,County,349.437,43.7963586875,-89.11446262499999
0500000US55053,55,053,Jackson,County,987.72,44.26025538095238,-90.81757304761906
0500000US55065,55,065,Lafayette,County,633.588,42.53499230303031,-90.13360154545454
0500000US55067,55,067,Langlade,County,870.64,45.21440944444444,-89.00970183333334
0500000US55073,55,073,Marathon,County,1544.983,44.92282907692307,-89.92009861538462
0500000US55075,55,075,Marinette,County,1399.347,45.43363230812325,-87.81078205042017
0500000US55081,55,081,Monroe,County,900.776,44.00459407142857,-90.77457228571427
0500000US55085,55,085,Oneida,County,1112.97,45.720987058823525,-89.47825552941175
0500000US55097,55,097,Portage,County,800.679,44.386026699999995,-89.5586046
0500000US55099,55,099,Price,County,1254.376,45.65646453333333,-90.29994600000002
0500000US55103,55,103,Richland,County,586.151,43.2775995882353,-90.44119270588236
0500000US55107,55,107,Rusk,County,913.585,45.474115375,-90.956007
0500000US55113,55,113,Sawyer,County,1257.305,45.99870636363636,-91.20385518181818
0500000US55127,55,127,Walworth,County,555.127,42.6563181,-88.59212145000001
0500000US55131,55,131,Washington,County,430.703,43.353674250000005,-88.20716191666668
0500000US55137,55,137,Waushara,County,626.153,44.15704566666667,-89.26920011111112
0500000US56005,56,005,Campbell,County,4802.709,44.40171447058824,-105.56175802941176
0500000US56015,56,015,Goshen,County,2225.391,42.01068915,-104.158036975
0500000US56025,56,025,Natrona,County,5340.352,43.0298214,-106.78584491999999
0500000US56031,56,031,Platte,County,2084.208,42.211865857142854,-105.08163821428572
0500000US56041,56,041,Uinta,County,2081.264,41.20152726315789,-110.53173247368422
0500000US56045,56,045,Weston,County,2398.089,43.79404154166667,-104.45053295833334
0500000US72007,72,007,Aguas Buenas,Muno,30.085,18.258171285714287,-66.12279021428571
0500000US72009,72,009,Aibonito,Muno,31.311,18.13538045454545,-66.25263027272727
0500000US72015,72,015,Arroyo,Muno,15.008,17.990107714285717,-66.05371157142856
0500000US49027,49,027,Millard,County,6572.425,38.99502238666667,-112.64012302666667
0500000US49031,49,031,Piute,County,757.791,38.34779583870968,-112.21643812903226
0500000US49039,49,039,Sanpete,County,1590.152,39.486249906249995,-111.6784513125
0500000US49053,49,053,Washington,County,2426.358,37.345514575,-113.689337525
0500000US50003,50,003,Bennington,County,674.98,43.03942776470588,-73.11433697058823
0500000US50009,50,009,Essex,County,663.598,44.651548658045975,-71.61696663505747
0500000US50015,50,015,Lamoille,County,458.797,44.60490132258065,-72.6985976129032
0500000US50023,50,023,Washington,County,687.233,44.27744508571428,-72.5966972857143
0500000US51003,51,003,Albemarle,County,720.698,37.972379800000006,-78.57112374285714
0500000US51013,51,013,Arlington,County,25.974,38.880839238095234,-77.07776204761905
0500000US51025,51,025,Brunswick,County,566.173,36.77488045,-77.8876578
0500000US51035,51,035,Carroll,County,474.69,36.68751069230768,-80.73056933333335
0500000US51043,51,043,Clarke,County,176.177,39.11769505,-78.0166084
0500000US51049,51,049,Cumberland,County,297.461,37.49697703225806,-78.24102941935483
0500000US51063,51,063,Floyd,County,380.42,36.909665539682535,-80.34016012698414
0500000US51075,51,075,Goochland,County,281.415,37.68740182051283,-77.88655264102563
0500000US51081,51,081,Greensville,County,295.226,36.71144741935485,-77.50491458064516
0500000US51097,51,097,King and Queen,County,315.138,37.73799674603175,-76.95069188888888
0500000US51109,51,109,Louisa,County,496.3,38.039829437499996,-77.94102533333334
0500000US51121,51,121,Montgomery,County,387.014,37.1393616,-80.45524726
0500000US51127,51,127,New Kent,County,209.729,37.50932424561403,-76.95939656140351
0500000US51135,51,135,Nottoway,County,314.392,37.09774168421053,-78.02437431578949
0500000US51145,51,145,Powhatan,County,260.221,37.55562611904762,-77.94043349999998
0500000US51159,51,159,Richmond,County,191.492,37.91190330188679,-76.70888696226415
0500000US51169,51,169,Scott,County,535.53,36.70475290322581,-82.60886680645162
0500000US51181,51,181,Surry,County,278.949,37.13967326666667,-76.84894493333333
0500000US51187,51,187,Warren,County,213.465,38.90230493333333,-78.2106624
0500000US51197,51,197,Wythe,County,461.824,36.913518321428576,-81.07445953571427
0500000US51515,51,515,Bedford,city,6.878,37.337054333333334,-79.51926950000001
0500000US51530,51,530,Buena Vista,city,6.704,37.72934585714285,-79.35980028571429
0500000US51570,51,570,Colonial Heights,city,7.52,37.25020884210526,-77.3988515263158
0500000US51595,51,595,Emporia,city,6.894,36.6930068,-77.5383148
0500000US51610,51,610,Falls Church,city,1.999,38.884265125,-77.17447525
0500000US51640,51,640,Galax,city,8.24,36.662177545454554,-80.92321190909091
0500000US51660,51,660,Harrisonburg,city,17.418,38.43931133333333,-78.87562583333333
0500000US51683,51,683,Manassas,city,9.881,38.757456499999996,-77.4788671
0500000US51690,51,690,Martinsville,city,10.956,36.67236466666667,-79.86831973333334
0500000US51720,51,720,Norton,city,7.481,36.932600428571426,-82.62755928571428
0500000US51740,51,740,Portsmouth,city,33.653,36.87021038888889,-76.3559165
0500000US51770,51,770,Roanoke,city,42.562,37.272604666666666,-79.95017514285715
0500000US51820,51,820,Waynesboro,city,15.039,38.05998266666666,-78.90878116666666
0500000US51830,51,830,Williamsburg,city,9.022,37.279824000000005,-76.70424623529414
0500000US53013,53,013,Columbia,County,868.629,46.40564361538461,-117.93794641025642
0500000US53023,53,023,Garfield,County,710.686,46.451920413043474,-117.54016130434783
0500000US04019,04,019,Pima,County,9187.036,32.078535225,-111.5332003
0500000US04021,04,021,Pinal,County,5365.612,33.04050013559322,-111.13699527118644
0500000US04025,04,025,Yavapai,County,8123.499,34.557929359999996,-112.19491602999999
0500000US04027,04,027,Yuma,County,5513.992,32.721572758426966,-114.5863186460674
0500000US05001,05,001,Arkansas,County,988.77,34.199967204301075,-91.27218173118281
0500000US05003,05,003,Ashley,County,925.349,33.155279551020406,-91.9139212857143
0500000US05007,05,007,Benton,County,847.357,36.32814618604652,-94.14604296511628
0500000US05009,05,009,Boone,County,590.231,36.362968083333335,-93.05385550000001
0500000US05011,05,011,Bradley,County,649.231,33.362292044117645,-92.16613348529413
0500000US05013,05,013,Calhoun,County,628.581,33.49410862857142,-92.53144054285715
0500000US05015,05,015,Carroll,County,630.087,36.359827969230764,-93.69787778461539
0500000US05017,05,017,Chicot,County,644.304,33.31036715720524,-91.16007984716157
0500000US05019,05,019,Clark,County,866.074,33.955917715596335,-93.1248441743119
0500000US05021,05,021,Clay,County,639.465,36.377911625698324,-90.25719608938547
0500000US05029,05,029,Conway,County,552.25,35.18318722857143,-92.69604488571429
0500000US05031,05,031,Craighead,County,707.206,35.90890038095239,-90.601408
0500000US05033,05,033,Crawford,County,593.094,35.53535530357143,-94.18614373214287
0500000US05035,05,035,Crittenden,County,609.76,35.16282634391534,-90.1866490846561
0500000US72017,72,017,Barceloneta,Muno,18.693,18.457900352941174,-66.55804505882354
0500000US72019,72,019,Barranquitas,Muno,34.253,18.19571617647059,-66.30141276470587
0500000US72021,72,021,Bayamn,Muno,44.324,18.35049017777778,-66.14721255555556
0500000US72023,72,023,Cabo Rojo,Muno,70.374,18.018708716981134,-67.17580088679244
0500000US72027,72,027,Camuy,Muno,46.355,18.415474333333332,-66.8635826
0500000US72039,72,039,Ciales,Muno,66.529,18.269525361111107,-66.53335305555555
0500000US72043,72,043,Coamo,Muno,78.012,18.11064405,-66.37063585000001
0500000US72051,72,051,Dorado,Muno,23.089,18.447164315789472,-66.26894878947367
0500000US72054,72,054,Florida,Muno,15.209,18.37052066666667,-66.55785011111112
0500000US72063,72,063,Gurabo,Muno,27.887,18.257676346153843,-65.96180326923077
0500000US72069,72,069,Humacao,Muno,44.755,18.13997063636364,-65.80622200000002
0500000US72077,72,077,Juncos,Muno,26.489,18.23905643478261,-65.92379791304349
0500000US72085,72,085,Las Piedras,Muno,33.88,18.2025684117647,-65.8601294117647
0500000US72089,72,089,Luquillo,Muno,25.811,18.326793666666664,-65.73897038888889
0500000US72095,72,095,Maunabo,Muno,21.066,18.017169,-65.92379773333333
0500000US72105,72,105,Naranjito,Muno,27.401,18.287759846153847,-66.25064923076924
0500000US72109,72,109,Patillas,Muno,46.699,18.02631,-66.0081135
0500000US72117,72,117,Rincn,Muno,14.288,18.332973166666665,-67.23331541666667
0500000US72121,72,121,Sabana Grande,Muno,35.833,18.086717272727274,-66.94575554545455
0500000US72129,72,129,San Lorenzo,Muno,53.108,18.142149055555556,-65.98971372222223
0500000US72133,72,133,Santa Isabel,Muno,34.023,17.984655157894743,-66.37945610526316
0500000US72145,72,145,Vega Baja,Muno,45.856,18.4379100625,-66.3961281875
0500000US72149,72,149,Villalba,Muno,35.637,18.125241846153845,-66.46808369230769
0500000US02240,02,240,Southeast Fairbanks,CA,24768.808,63.62228130967743,-143.93133412903225
0500000US02282,02,282,Yakutat,Cty&Bor,7649.457,59.74417845355191,-140.06877240437154
0500000US04001,04,001,Apache,County,11197.521,34.63988953968254,-109.51250217460317
0500000US04005,04,005,Coconino,County,18618.885,35.66930487892376,-112.19455865022421
0500000US04007,04,007,Gila,County,4757.933,33.96775499438203,-111.13886984269662
0500000US04011,04,011,Greenlee,County,1843.126,33.18235290909091,-109.17751509090908
0500000US04013,04,013,Maricopa,County,9200.143,33.617358972602744,-111.90511910958904
0500000US04017,04,017,Navajo,County,9950.422,35.45663814634146,-110.17903260975609
0500000US05101,05,101,Newton,County,820.896,35.952869928571424,-93.26917639285713
0500000US05103,05,103,Ouachita,County,732.783,33.60006866666667,-92.81757338666668
0500000US05105,05,105,Perry,County,551.402,34.95422595161291,-92.9614283064516
0500000US05107,05,107,Phillips,County,695.663,34.31273136065574,-90.7894186502732
0500000US05113,05,113,Polk,County,857.679,34.479909625,-94.31165241666667
0500000US05115,05,115,Pope,County,812.548,35.30525963157895,-93.06778557894735
0500000US05117,05,117,Prairie,County,647.958,34.9148317752809,-91.59997633707864
0500000US05119,05,119,Pulaski,County,759.763,34.78151458139535,-92.3879496744186
0500000US05121,05,121,Randolph,County,652.191,36.35270869444444,-91.03617247222223
0500000US05125,05,125,Saline,County,723.604,34.638481931818184,-92.67964859090908
0500000US05127,05,127,Scott,County,892.32,34.86232790476191,-94.17193964285714
0500000US05131,05,131,Sebastian,County,531.911,35.24246452112676,-94.32081997183097
0500000US05133,05,133,Sevier,County,565.126,33.93157351612903,-94.21940262903225
0500000US05137,05,137,Stone,County,606.405,35.94752704878049,-92.07827334146343
0500000US08051,08,051,Gunnison,County,3239.1,38.87615470967742,-106.94301575806452
0500000US08055,08,055,Huerfano,County,1591.001,37.675333223684206,-105.07324444736842
0500000US08057,08,057,Jackson,County,1613.723,40.69406075,-106.33064884375
0500000US08059,08,059,Jefferson,County,764.208,39.52315773333333,-105.16559774666666
0500000US08063,08,063,Kit Carson,County,2160.822,39.34612529166666,-102.363880125
0500000US08065,08,065,Lake,County,376.911,39.25956906976744,-106.3313984883721
0500000US08067,08,067,La Plata,County,1692.078,37.22554577777779,-108.11916830555556
0500000US08069,08,069,Larimer,County,2596.002,40.60713160377359,-105.71222379245283
0500000US08071,08,071,Las Animas,County,4772.672,37.32648962264151,-104.45292228301886
0500000US08075,08,075,Logan,County,1838.547,40.926240240740746,-103.06301731481481
0500000US08077,08,077,Mesa,County,3328.974,39.04807489090909,-108.1150410909091
0500000US08081,08,081,Moffat,County,4743.29,40.630745947368425,-108.19543207894738
0500000US05039,05,039,Dallas,County,667.386,33.97506986538462,-92.67270190384615
0500000US05041,05,041,Desha,County,768.152,33.84399639015152,-91.0997815189394
0500000US05045,05,045,Faulkner,County,647.884,35.05839331428572,-92.43188860000001
0500000US05047,05,047,Franklin,County,608.857,35.504282837837835,-93.94625791891892
0500000US05049,05,049,Fulton,County,618.194,36.466554275,-91.80355985
0500000US05053,05,053,Grant,County,631.809,34.25709025925926,-92.44248159259259
0500000US05055,05,055,Greene,County,577.699,36.099249481481486,-90.47971693518515
0500000US05057,05,057,Hempstead,County,727.52,33.7234450952381,-93.75961597619046
0500000US05061,05,061,Howard,County,588.554,34.05684977777777,-94.04722141666666
0500000US05063,05,063,Independence,County,763.953,35.754682270270266,-91.49181048648647
0500000US05065,05,065,Izard,County,580.577,36.030732931818186,-91.97811906818183
0500000US05069,05,069,Jefferson,County,870.746,34.16459268292684,-91.67673853658538
0500000US05071,05,071,Johnson,County,659.804,35.46040710344828,-93.43399699999999
0500000US05073,05,073,Lafayette,County,528.268,33.25548165957447,-93.6395404468085
0500000US05075,05,075,Lawrence,County,587.614,36.086232260273974,-90.9666514109589
0500000US05077,05,077,Lee,County,602.621,34.7503094025974,-90.53660145454546
0500000US05083,05,083,Logan,County,708.125,35.26329992307693,-93.63079465384615
0500000US05085,05,085,Lonoke,County,770.728,34.76608574285714,-91.87082342857144
0500000US05089,05,089,Marion,County,597.009,36.30945174358974,-92.6004587179487
0500000US05091,05,091,Miller,County,625.578,33.355679736263745,-93.89282039560439
0500000US05093,05,093,Mississippi,County,900.574,35.68265746456693,-89.90637459842519
0500000US05095,05,095,Monroe,County,607.122,34.64105416981132,-91.22980718867923
0500000US05099,05,099,Nevada,County,617.837,33.78504857894737,-93.28516144736842
0500000US09001,09,001,Fairfield,County,624.89,41.23585900813008,-73.43884419512197
0500000US09003,09,003,Hartford,County,735.097,41.809885021505366,-72.75633058064516
0500000US09005,09,005,Litchfield,County,920.56,41.74449473684211,-73.24361199999998
0500000US09007,09,007,Middlesex,County,369.301,41.38528475675676,-72.55429064864865
0500000US09009,09,009,New Haven,County,604.506,41.33976868036529,-72.84634251598173
0500000US09011,09,011,New London,County,664.878,41.449117214285714,-72.14561857142857
0500000US10001,10,001,Kent,County,586.179,39.13760497468354,-75.51020929113925
0500000US10003,10,003,New Castle,County,426.286,39.635765581699346,-75.58285290196079
0500000US10005,10,005,Sussex,County,936.079,38.61942557291667,-75.36264361458333
0500000US11001,11,001,District of Columbia,,61.048,38.88292593055556,-77.03840483333335
0500000US12001,12,001,Alachua,County,875.02,29.69553335087719,-82.32633389473683
0500000US12003,12,003,Baker,County,585.231,30.42312176811594,-82.21060313043478
0500000US12007,12,007,Bradford,County,293.962,29.906561736842107,-82.19336602631579
0500000US12009,12,009,Brevard,County,1015.664,28.42828442424242,-80.71840453030305
0500000US12011,12,011,Broward,County,1209.785,26.152747486486483,-80.27182627027028
0500000US12015,12,015,Charlotte,County,680.279,26.881139821428572,-82.13107037500001
0500000US12017,12,017,Citrus,County,581.696,28.918249949152546,-82.4534230677966
0500000US12021,12,021,Collier,County,1998.324,26.038223985507248,-81.55666286956523
0500000US08083,08,083,Montezuma,County,2029.527,37.24045521276595,-108.57251517021278
0500000US08087,08,087,Morgan,County,1280.433,40.32787891666667,-103.73381066666667
0500000US08089,08,089,Otero,County,1261.961,38.01922679310344,-103.77063879310347
0500000US08091,08,091,Ouray,County,541.593,38.10639298,-107.79305169999999
0500000US08093,08,093,Park,County,2193.846,39.19869514754099,-105.91040749180328
0500000US08097,08,097,Pitkin,County,970.697,39.15074985245902,-106.88116898360656
0500000US08099,08,099,Prowers,County,1638.395,37.94251903571429,-102.2169297857143
0500000US08103,08,103,Rio Blanco,County,3220.934,40.0075599375,-108.05421159375
0500000US08107,08,107,Routt,County,2362.026,40.519574488372086,-106.92193474418605
0500000US08109,08,109,Saguache,County,3168.525,38.06902578571429,-106.08186810714285
0500000US08111,08,111,San Juan,County,387.488,37.79999910810811,-107.70884305405406
0500000US08113,08,113,San Miguel,County,1286.611,37.92381807843137,-108.1654085882353
0500000US08117,08,117,Summit,County,608.358,39.62672325,-106.10725027380951
0500000US08119,08,119,Teller,County,557.055,38.836341,-105.16661849999998
0500000US08123,08,123,Weld,County,3987.238,40.67705144000001,-104.3546294
0500000US08125,08,125,Yuma,County,2364.405,40.03984840000001,-102.25395346666666
0500000US12086,12,086,Miami-Dade,County,1897.716,25.429136025,-80.44013218125
0500000US12089,12,089,Nassau,County,648.639,30.671811874458875,-81.79291088311687
0500000US12091,12,091,Okaloosa,County,930.247,30.727805025,-86.548248525
0500000US12093,12,093,Okeechobee,County,768.908,27.377900630434787,-80.98318895652173
0500000US12095,12,095,Orange,County,903.429,28.57131270454545,-81.27492777272728
0500000US12097,12,097,Osceola,County,1327.453,27.975879065789478,-81.27208347368422
0500000US12101,12,101,Pasco,County,746.886,28.31492893103448,-82.55682720689656
0500000US12103,12,103,Pinellas,County,273.799,27.87649083333333,-82.735842425
0500000US12105,12,105,Polk,County,1797.837,28.057167000000003,-81.57386796969696
0500000US12109,12,109,St. Johns,County,600.655,29.894789510638297,-81.44989336170212
0500000US12111,12,111,St. Lucie,County,571.926,27.356503789473688,-80.39068621052631
0500000US12113,12,113,Santa Rosa,County,1011.605,30.787425244444442,-87.06286697777776
0500000US12115,12,115,Sarasota,County,555.868,27.181088,-82.41492473333334
0500000US12117,12,117,Seminole,County,309.221,28.79029144444445,-81.2817096984127
0500000US12119,12,119,Sumter,County,546.933,28.571082097222227,-82.12604565277778
0500000US12121,12,121,Suwannee,County,688.552,30.2797602625,-82.99372530000001
0500000US12125,12,125,Union,County,243.556,30.046936083333332,-82.34241891666666
0500000US12127,12,127,Volusia,County,1101.032,28.975916407407404,-81.25713456790123
0500000US12129,12,129,Wakulla,County,606.419,30.097700999999997,-84.345999
0500000US12131,12,131,Walton,County,1037.625,30.66755961702127,-86.10159993617022
0500000US13001,13,001,Appling,County,507.081,31.78792243103448,-82.2772727586207
0500000US13003,13,003,Atkinson,County,339.382,31.307689208333333,-82.9248345
0500000US12023,12,023,Columbia,County,797.574,30.258836382352943,-82.67666181372549
0500000US12029,12,029,Dixie,County,705.053,29.546178575757573,-83.16692580303031
0500000US12031,12,031,Duval,County,762.192,30.402923741935485,-81.61404911290322
0500000US12035,12,035,Flagler,County,485.461,29.51840288,-81.30899627999999
0500000US12037,12,037,Franklin,County,534.725,29.774252678832116,-84.85694735036496
0500000US12039,12,039,Gadsden,County,516.332,30.568972613636365,-84.61367345454545
0500000US12043,12,043,Glades,County,806.009,27.010829304347823,-81.19649495652173
0500000US12045,12,045,Gulf,County,564.012,29.857982639999996,-85.25558908000001
0500000US12047,12,047,Hamilton,County,513.79,30.454692047619044,-82.90033412698413
0500000US12051,12,051,Hendry,County,1152.75,26.582077299999998,-81.18131014999999
0500000US12053,12,053,Hernando,County,472.539,28.555315967213115,-82.35349180327869
0500000US12057,12,057,Hillsborough,County,1020.214,27.86041476056338,-82.45266
0500000US12059,12,059,Holmes,County,478.777,30.858972115384613,-85.71978953846154
0500000US12061,12,061,Indian River,County,502.872,27.700091045454545,-80.595765
0500000US12063,12,063,Jackson,County,917.76,30.86145564912281,-85.02522614912282
0500000US12065,12,065,Jefferson,County,598.095,30.45525487719298,-83.86168324561405
0500000US12069,12,069,Lake,County,938.381,28.877894412698414,-81.56799926984128
0500000US12071,12,071,Lee,County,784.513,26.566858773584904,-82.08603111320754
0500000US12073,12,073,Leon,County,666.852,30.504466647058823,-84.28058547058824
0500000US12075,12,075,Levy,County,1118.206,29.235861011904767,-82.85202864285714
0500000US12079,12,079,Madison,County,695.948,30.50039471666667,-83.44574463333333
0500000US12085,12,085,Martin,County,543.464,27.103726333333338,-80.299103
0500000US13069,13,069,Coffee,County,575.097,31.68426127419355,-82.92016564516129
0500000US13073,13,073,Columbia,County,290.09,33.613774234375,-82.2108826875
0500000US13077,13,077,Coweta,County,440.892,33.347594597402605,-84.66411642857142
0500000US13079,13,079,Crawford,County,324.888,32.68786189285715,-83.9747912857143
0500000US13083,13,083,Dade,County,173.981,34.82216932,-85.51705256
0500000US13085,13,085,Dawson,County,210.83,34.46440106060606,-84.12245027272728
0500000US13087,13,087,Decatur,County,597.14,30.84394957142857,-84.69092585714286
0500000US13089,13,089,DeKalb,County,267.582,33.74127731707316,-84.20611646341463
0500000US13091,13,091,Dodge,County,495.89,32.101226411764706,-83.22151096078433
0500000US13095,13,095,Dougherty,County,328.689,31.5365325,-84.15439383333334
0500000US13097,13,097,Douglas,County,200.067,33.71312829166666,-84.7394
0500000US13099,13,099,Early,County,512.594,31.30459725409836,-85.02699742622951
0500000US13103,13,103,Effingham,County,477.7,32.4136355942029,-81.25936899275362
0500000US13105,13,105,Elbert,County,351.055,34.10054266153846,-82.7175648923077
0500000US13107,13,107,Emanuel,County,680.604,32.654703084337356,-82.32559913253012
0500000US13111,13,111,Fannin,County,386.723,34.82334975757576,-84.27528954545454
0500000US13113,13,113,Fayette,County,194.342,33.377214151515155,-84.52480921212123
0500000US13115,13,115,Floyd,County,509.911,34.31535381818182,-85.19063329545453
0500000US13117,13,117,Forsyth,County,224.021,34.16521726530612,-84.06866042857143
0500000US13121,13,121,Fulton,County,526.635,33.853398414285714,-84.42461630000003
0500000US13123,13,123,Gilmer,County,426.54,34.65292835294117,-84.4293912647059
0500000US05145,05,145,White,County,1035.075,35.14466855681818,-91.66018801136363
0500000US05149,05,149,Yell,County,929.984,35.06425381818181,-93.22697492207791
0500000US06001,06,001,Alameda,County,739.017,37.69567237037037,-122.10216138271605
0500000US06003,06,003,Alpine,County,738.332,38.5555856122449,-119.7409170612245
0500000US13005,13,005,Bacon,County,258.576,31.540097212121214,-82.40356972727272
0500000US13007,13,007,Baker,County,341.944,31.317205720930232,-84.3859028372093
0500000US13011,13,011,Banks,County,232.091,34.35560604545455,-83.5006135
0500000US13013,13,013,Barrow,County,160.309,34.00434634782608,-83.70017369565218
0500000US13015,13,015,Bartow,County,459.544,34.25950949999999,-84.86132696153847
0500000US13017,13,017,Ben Hill,County,250.121,31.787327904761913,-83.1939400952381
0500000US13021,13,021,Bibb,County,249.762,32.812061178571426,-83.66556785714286
0500000US13023,13,023,Bleckley,County,215.87,32.4056185,-83.3569216875
0500000US13025,13,025,Brantley,County,442.362,31.193064076923076,-82.00173325641028
0500000US13027,13,027,Brooks,County,493.046,30.791483586956524,-83.49471473913044
0500000US13029,13,029,Bryan,County,435.967,31.983742704545456,-81.47631635227273
0500000US13031,13,031,Bulloch,County,672.809,32.427771763636365,-81.72050256363639
0500000US13033,13,033,Burke,County,826.968,33.058588175,-81.86196964375002
0500000US13037,13,037,Calhoun,County,280.367,31.52616242105263,-84.60091205263157
0500000US13039,13,039,Camden,County,613.025,30.843065993902435,-81.64766206707317
0500000US13045,13,045,Carroll,County,499.076,33.58477833333333,-85.045365
0500000US13049,13,049,Charlton,County,773.576,30.61571984177215,-82.07013906329115
0500000US13051,13,051,Chatham,County,426.437,32.001582876923074,-81.06747695384615
0500000US13053,13,053,Chattahoochee,County,248.736,32.34755474666667,-84.88885268000001
0500000US13057,13,057,Cherokee,County,421.674,34.26646082608696,-84.4832964347826
0500000US13061,13,061,Clay,County,195.381,31.63610196666667,-85.05247088888889
0500000US13063,13,063,Clayton,County,141.57,33.51604036363636,-84.36048542424243
0500000US13065,13,065,Clinch,County,800.222,30.767481138888886,-82.59657255555554
0500000US13067,13,067,Cobb,County,339.549,33.91831779310344,-84.5462024137931
0500000US06041,06,041,Marin,County,520.306,38.024087645161295,-122.68193432258066
0500000US06045,06,045,Mendocino,County,3506.343,39.30308796575342,-123.44555589041097
0500000US06047,06,047,Merced,County,1934.972,37.148351241379316,-120.69532529310345
0500000US06051,06,051,Mono,County,3048.982,38.11957248275861,-119.12865775862072
0500000US06053,06,053,Monterey,County,3280.595,36.30668712418301,-121.35364625490197
0500000US06055,06,055,Napa,County,748.362,38.50780690769231,-122.35579389230767
0500000US06057,06,057,Nevada,County,957.772,39.292871485294114,-120.86362979411764
0500000US06059,06,059,Orange,County,790.568,33.65459119642857,-117.793677125
0500000US06061,06,061,Placer,County,1407.009,39.00970620618557,-120.81087627835052
0500000US06063,06,063,Plumas,County,2553.043,39.990447021126755,-120.90088664788732
0500000US06065,06,065,Riverside,County,7206.48,33.77894312019231,-115.07508799519232
0500000US06069,06,069,San Benito,County,1388.71,36.606189462962966,-121.12797218518517
0500000US06073,06,073,San Diego,County,4206.63,32.94781097435897,-117.08839696153846
0500000US06075,06,075,San Francisco,County,46.873,37.794579434782605,-122.42003760869561
0500000US06077,06,077,San Joaquin,County,1391.322,37.957180524390246,-121.36622625609756
0500000US06005,06,005,Amador,County,594.583,38.47827281355932,-120.59411730508475
0500000US06007,06,007,Butte,County,1636.464,39.73521789565216,-121.48180944347826
0500000US06009,06,009,Calaveras,County,1020.012,38.223353144927536,-120.46983185507246
0500000US06013,06,013,Contra Costa,County,715.937,37.95776370093458,-121.97911416822431
0500000US06015,06,015,Del Norte,County,1006.373,41.75617595714285,-123.96731031428571
0500000US06017,06,017,El Dorado,County,1707.883,38.79569075789474,-120.64101928421053
0500000US06019,06,019,Fresno,County,5957.991,36.821146379518076,-119.85840745783133
0500000US06023,06,023,Humboldt,County,3567.987,40.776585656,-123.958011872
0500000US06025,06,025,Imperial,County,4176.603,33.05728947393365,-114.69839480094788
0500000US06027,06,027,Inyo,County,10180.879,36.524339250000004,-117.31114926666666
0500000US06029,06,029,Kern,County,8131.916,35.30465071014493,-118.96200731884059
0500000US06033,06,033,Lake,County,1256.464,39.08840595604395,-122.74983241758245
0500000US06035,06,035,Lassen,County,4541.184,40.23889902105263,-120.47119673684212
0500000US06037,06,037,Los Angeles,County,4057.884,33.63773135449735,-118.40922683068781
0500000US06039,06,039,Madera,County,2137.069,37.103745152,-119.84304777599999
0500000US18123,18,123,Perry,County,381.727,37.97357573214286,-86.61157545535714
0500000US18125,18,125,Pike,County,334.238,38.48468204347826,-87.26649647826086
0500000US18129,18,129,Posey,County,409.571,37.91867414814815,-87.9281705925926
0500000US18135,18,135,Randolph,County,452.379,40.152945888888894,-84.89707627777778
0500000US18137,18,137,Ripley,County,446.426,39.12400525,-85.24490441666666
0500000US18141,18,141,St. Joseph,County,457.85,41.62890234482759,-86.3344116551724
0500000US18143,18,143,Scott,County,190.397,38.71073844117647,-85.78419711764707
0500000US18147,18,147,Spencer,County,396.744,37.93719076086956,-87.02159133695653
0500000US18149,18,149,Starke,County,309.134,41.301339941176465,-86.75543388235295
0500000US18151,18,151,Steuben,County,308.939,41.71305866666667,-84.93392423333333
0500000US18153,18,153,Sullivan,County,447.142,39.10981254761904,-87.55086749999998
0500000US18155,18,155,Switzerland,County,220.633,38.80378893421052,-84.94777306578948
0500000US18161,18,161,Union,County,161.224,39.62298244444444,-84.8601123888889
0500000US18163,18,163,Vanderburgh,County,233.475,37.922148829268295,-87.60628776829269
0500000US26003,26,003,Alger,County,915.07,46.50650273958333,-86.62674079166668
0500000US26007,26,007,Alpena,County,571.86,45.05335500000001,-83.42848189090908
0500000US26011,26,011,Arenac,County,363.191,44.02082185185185,-83.7708024691358
0500000US26013,26,013,Baraga,County,898.257,46.8915547625,-88.26792740625001
0500000US26017,26,017,Bay,County,442.302,43.689116857142864,-83.89571462857144
0500000US26021,26,021,Berrien,County,567.747,41.96830315384616,-86.5680217008547
0500000US26023,26,023,Branch,County,506.369,41.81179329166667,-85.10869383333333
0500000US26027,26,027,Cass,County,490.062,41.788873260869565,-85.98597295652174
0500000US26029,26,029,Charlevoix,County,416.339,45.58406391588785,-85.41348670093458
0500000US21041,21,041,Carroll,County,128.569,38.69339714285714,-85.13877285714285
0500000US21043,21,043,Carter,County,409.496,38.30766637209303,-83.13863195348837
0500000US21047,21,047,Christian,County,717.503,36.98562178431373,-87.41976805882354
0500000US21049,21,049,Clark,County,252.463,37.91823873529412,-84.15480454411764
0500000US21051,21,051,Clay,County,469.247,37.11874873076923,-83.71776040384617
0500000US21055,21,055,Crittenden,County,359.952,37.36355944859813,-88.09356524299065
0500000US21057,21,057,Cumberland,County,305.182,36.77307272413794,-85.42682955172414
0500000US21059,21,059,Daviess,County,458.346,37.80300951190477,-87.09678144047618
0500000US21063,21,063,Elliott,County,234.315,38.165948345454545,-83.09265914545456
0500000US21065,21,065,Estill,County,253.078,37.72915992592593,-83.92961101851853
0500000US21067,21,067,Fayette,County,283.649,38.02532973239436,-84.3756641971831
0500000US21069,21,069,Fleming,County,348.542,38.32550789705883,-83.67742898529411
0500000US20079,20,079,Harvey,County,539.754,38.057833333333335,-97.36534083333333
0500000US20081,20,081,Haskell,County,577.521,37.4747811,-100.81601450000001
0500000US20085,20,085,Jackson,County,656.217,39.487316615384614,-95.74698076923079
0500000US20087,20,087,Jefferson,County,532.574,39.13485008695652,-95.4046411304348
0500000US20089,20,089,Jewell,County,909.781,39.90528826923076,-98.20634434615384
0500000US20091,20,091,Johnson,County,473.375,38.901694161290315,-94.73205496774193
0500000US20097,20,097,Kiowa,County,722.639,37.50252775,-99.3510535
0500000US20099,20,099,Labette,County,645.295,37.09707990909091,-95.30527663636363
0500000US20103,20,103,Leavenworth,County,462.831,39.25024971111111,-94.92896542222222
0500000US20107,20,107,Linn,County,594.059,38.22073625806451,-94.67229548387098
0500000US20111,20,111,Lyon,County,847.474,38.51380475,-96.11867116666667
0500000US20113,20,113,McPherson,County,898.274,38.37289139999999,-97.68159080000002
